names,address1,address2,phone,opened,enrollment,grades,status,description,longitude,latitude
Academy Charter School,801 E Artic,"Palmer, AK 99645",907-746-2358,1996,231,K-8,Open,,-149.0944394,61.6067862
Alaska Native Cultural Charter School,110 Muldoon Rd.,"Anchorage, AK 99504",907-575-6195,2008,200,K-6,Open,The school offers students a curriculum focused on Alaska Native culture and a rigorous academic program that develops academic achievement.,-149.7338432,61.2234851
American Charter Academy,244 S. Sylvan Way,"Meadow Lakes, AK 99654",907-373-1600,2010,190,12-Jun,Open,Standards-based model where students work at their knowledge level instead of grade level. Offers many outdoors activities.,-149.63379,61.582023
Anvil City Science Academy,Mile 3.5 Nome-Teller Hwy.,"Nome, AK 99762",907-443-6207,1998,44,8-May,Open,"Thematic learning, outward bound exploration and science-based curriculum. Emphasis on science and technology. Core Knowledge curriculum.",-165.386512,64.5152494
Aquarian Charter School,1705 W. 32nd Ave.,"Anchorage, AK 99517",907-337-0469,1997,360,K-6,Open,"Includes drama, music, Spanish Inclusion and art to boost achievement. Program for high-achieving children from families with working parents.",-149.917962,61.192314
Aurora Borealis Charter School,"705 Frontage Road, Ste. A","Kenai, AK 99611-7769",907-283-0292,1997,180,K-8,Open,"Teachers and parents are provided with the opportunity, responsibility and accountability for the management and control of the total school curriculum and environment. Designed to meet the unique needs of each student.",-151.2553458,60.5542503
Ayaprun Elitnaurvik Yup?ik Immersion School,1010 Fourth Ave.,"Bethel, AK 99559",907-543-1645,1999,170,K-6,Open,Thematic approach using the arts and environment; works closely with tribal leaders and provides tribal language immersion program. Native American population.,-161.7587513,60.7976653
Birchtree Charter School,7107 E. Palmer-Wasilla Hwy.,"Palmer, AK 99645",907-355-0490,2010,160,K-8,Open,Waldorf-inspired education manages the school.,-149.2714987,61.5977598
Chinook Montessori Charter School,3002 International St.,"Fairbanks, AK 99701",907-452-5020,1995,156,K-8,Open,"Multi-age environment supported by an alliance of educators, parents, businesses and community members. Strives to create a dynamic educational environment, which fosters educational excellence.",-147.7510796,64.8180189
Delta Cyber School,P.O. Box 1672,"Delta Junction, AK 99737",907-895-1043,1997,325,Ages 5-19,Open,Educational technology to gain access to curricular resources.,-145.7322222,64.0377778
Eagle Academy Charter School,"10901 Mausel St., Ste. 101","Eagle River, AK 99577",907-742-3025,2005,165,K-6,Open,"Uses the Spalding method of teaching across curriculum in all grade levels, employing a multi-sensory approach to learning.",-149.579306,61.319355
Effie Kokrine Charter School,601 Loftus Rd.,"Fairbanks, AK 99709",907-474-0958,2005,105,12-Jul,Open,"Emphasis on Alaskan Native American and Alaskan cultures, governance and the environment. Short school schedule.",-147.840912,64.847282
Family Partnership Charter School,401 E. Fireweed Ln.,"Anchorage, AK 99503",907-742-3700,1997,480,K-12,Open,Partnership school wherein parents bear the primary responsibility for management of their childrens education.,-149.876663,61.198354
Fireweed Academy,3719 Soundview Ave.,"Homer, AK 99603",907-235-9728,1997,66,6-Mar,Open,"Interdisciplinary education utilizing individual learning plans, experiential learning, project-based curricula and Socratic practice.",-151.5696471,59.6436277
Fronteras Spanish Immersion Charter School,7010 E Bogard Rd,"Wasilla, AK 99654",907-745-2223,2008,200,K-7,Open,,-149.274903,61.612714
Frontier Charter School,"400 W. Northern Lights Blvd., Ste. 9","Anchorage, AK 99503",907-742-1180,2003,350,K-12,Open,"Serves full-time home schooling families in the Anchorage School District, serves as a resource for multiple curricula, technology and community.",-149.891034,61.194864
General John Vessey,801 E. Arctic Ave.,"Palmer, AK 99645",907-746-2358,1997,231,K-8,Open,"Learning system that encourages students inherent abilities to be competent, confident, productive and responsible young adults with the habits and skills to succeed.",-149.0944394,61.6067862
Highland Tech High,"5530 E. Northern Lights Blvd., Ste. 1","Anchorage, AK 99504",907-742-1700,2003,450,12-Jul,Open,"Interdisciplinary, real world, project-based learning, with rigorous academic expectations. Prepares students to meet district and state standards.",-149.773886,61.194083
Juneau Community Charter School,430 Fourth St.,"Juneau, AK 99801",907-586-2526,1998,68,K-6,Open,"Developmentally appropriate education techniques, provides diverse perspectives and unique learning opportunities.",-134.4083678,58.3026118
Kaleidoscope School of Arts and Sciences,549 N. Forrest Dr.,"Kenai, AK 99611",907-283-0804,2004,160,K-4,Open,"Features innovative instruction focusing on student achievement, creative problem solving, life-long learning, parent involvement, hands-on science and the arts.",-149.1708452,60.9445001
Ketchikan Charter School,410 Schoenbar Road,"Ketchikan, AK 99901",907-225-8568,1998,171,K-8,Open,"Fosters growth of character, high academic achievement and love of learning. Offers regular assessment and early remediation.",-131.6379729,55.3462956
Midnight Sun Family Learning Center,"7362 W. Parks, #714","Wasilla, AK 99654",907-357-3733,1997,169,K-8,Open,"Family oriented, multi-age learning environment and rigorous academic program for higher education preparation and responsible citizenship.",-149.4685647,61.5814099
Rilke Schule German School of Arts and Sciences,2511 Sentry Drives Suite 100,"Anchorage, AK 99507",,2007,269,K-8,Open,German language immersion program focusing on high academic achievement.,-149.8357487,61.133437
Soldotna Montessori Charter School,162 E. Park Ave.,"Soldotna, AK 99669",907-260-9221,2002,162,K-6,Open,"Nurturing, supportive academic environment with parental involvement and student development of group and individual work skills. Encourages responsibility within the classroom, school and community.",-151.067975,60.49186
Star of the North Secondary School,2945 Monk Court Rd.,"North Pole, AK 99705",907-490-9025,2004,200,12-Jul,Open,Focuses on students in danger of not earning a high school diploma. Works with special needs students.,-147.3494444,64.7511111
Star of the North Secondary School-Fairbanks Campus,"724 27th Ave., Ste. 1","Fairbanks, AK 99701",907-479-4061,2004,100,12-Nov,Open,Help high school drop outs earn their high school diplomas. Must be 17 years old and have at least 14 credits earned,-147.7165249,64.8224993
The Watershed School,4975 Decathlon Ave.,"Fairbanks, AK 99709",907-374-9350,2009,198,K-8,Open,Emphasizes community involvement and the outdoors through place-based education.,-147.868292,64.827055
Tongass School of Arts and Sciences Elementary Charter School,"410 Schoenbar Rd., Ste. 202","Ketchikan, AK 99901",907-225-5720,2003,155,K-6,Open,"Builds on themes related to the arts and sciences; develops respect and appreciation for the diversity of people, cultures, ideas, and perspectives.",-131.6379729,55.3462956
Twindly Bridge Charter School,141 E. Seldon,"Wasilla, AK 99654",907-376-6680,2005,285,K-12,Open,"Home and classroom based program, individualized learning plans and small class sizes.",-149.4490659,61.614519
Winterberry Public School,508 W. Second Ave.,"Anchorage, AK 99501",907-742-4980,2005,169,K-7,Open,"Innovative, standards-based education. Uses Whole Child Curriculum and Waldorf educational philosophy.",-149.8918903,61.2205258
Thunderbird Early College Charter School,7362 W. Parks Hwy # 635,"Wasilla, AK 99654",907-715-0856,2011,,9-May,Approved,STEM school.,-154.4930619,63.588753
Academic and Personal Excellence High School,2859 E. Elvira,"Tucson, AZ 85706",520-298-8781,2003,200,12-Sep,Open,Specialized learning for students desiring a fuller and more challenging education. Small class sizes allow for more effective learning.,-110.929384,32.127782
Academy Adventures Midtown,3025 N. Winstel,"Tucson, AZ 85716",520-777-3757,2010,,K-5,Open,,-110.912495,32.26224
Academy Adventures Primary School,3902 N. Flowing Wells Road,"Tucson, AZ 85705",520-407-1200,1996,100,K-5,Open,"Maintains and nurtures an educational environment where all stakeholders (students, parents and staff) recognize and build on their strengths.",-110.994357,32.277791
Academy Del Sol,4525 E. Broadway Blvd.,"Tucson, AZ 85711",520-325-2800,2009,250,K-7,Open,,-110.8959828,32.2216481
Academy Del Sol-Hope,6740 S. Santa Clara Ave,"Tucson, AZ 85706",520-325-2800,2010,200,K-7,Open,,-110.982733,32.129632
Academy of Building Industries,1547 Lipan Blvd.,"Fort Mohave, AZ 86426",928-788-2601,2004,119,12-Sep,Open,Emphasis on mastering academic skills utilizing the Pima and Maricopa cultures. Native American population.,-114.5889776,34.9824775
Academy of Excellence,425 N. 36th St.,"Phoenix, AZ 85008",602-389-4271,1997,153,K-8,Open,"School of readers, writers, productive thinkers and problem solvers, where students experience success in a positive learning environment.",-112.0041972,33.4531347
Academy of Excellence Central Arizona,1530 South Arizona Blvd,"Coolidge, AZ 85128",520-723-4773,2000,43,K-8,Open,"For at-risk students with academic, vocational and social skills in a safe, drug-free environment utilizing individualized learning plans that foster competent, responsible, adaptive citizens.",-111.524741,32.963867
Academy of Hope,47117 1st St.,"Ash Fork, AZ 86320",928 637-2487,1998,60,K-12,Open,A unique school designed to provide excellent and responsive educational services to the growing community of Ash Fork and surrounding rural areas.,-112.4808426,35.2228269
Academy of Math and Science,1557 W. Prince Rd.,"Tucson, AZ 85705",520-293-2676,2000,278,K-12,Open,Dedicated to teaching the Arizona State Standards in core subjects. Focuses on mathematics and scientific processes and their application to individual and multiple learning styles.,-110.99948,32.271883
Academy of Tucson Elementary School,9209 E. Wrighstown Rd.,"Tucson, AZ 85715",520-886-6076,2000,237,K-5,Open,"Core curriculum, caring staff, prepared students.",-110.796743,32.245325
Academy of Tucson High School,10720 E. 22nd St.,"Tucson, AZ 85748",520-799-0096,1999,168,12-Sep,Open,"Students learn to take responsibility for themselves, practice positive leadership and value educational preparation.",-110.763531,32.205368
Academy of Tucson Middle School,2300 N. Tanque Verde Loop Road,"Tucson, AZ 85749",520-749-1413,1999,156,8-Jun,Open,"School is characterized by a sound college preparatory curriculum, a faculty of educated, respected, encouraging and caring teachers, a safe, supportive environment for learning and a communicative, accountable administration.",-110.7555613,32.2497937
Academy with Community Partners,433 N. Hall,"Mesa, AZ 85203",480-833-0068,1996,170,12-Sep,Open,"Partnerships combining the resources of the community, family and school provide an authentic learning environment in which students become active learners and develop a feeling of success as they work.",-111.793154,33.423838
Accelerated Learning Center - Phoenix,4105 E. Shea Blvd.,"Phoenix, AZ 85028",602-485-0309,1997,200,12-Sep,Open,"Provides an individualized academic program and school-to-work training for students, preparing them to enter the work force or post-secondary education as productive citizens.",-111.992412,33.582053
Accelerated Learning Charter School,320 S. Main St.,"Cottonwood, AZ 86326",928-634-0650,1999,100,PreK-6,Open,Serves academically advanced students. Offers individualized instruction of a core curriculum supported by enrichment and acceleration. Maintains high behavioral standards.,-112.01019,34.733645
Accelerated Learning Laboratory,5245 N. Camino de Oeste,"Tucson, AZ 85745",520-743-2256,1997,215,K-10,Open,"Seeks to provide comprehensive, efficient, accelerated and high quality education to develop students cooperative, social and work skills, critical thinking and problem-solving strategies.",-111.065083,32.302847
ACCLAIM Academy,5350 W. Indian School Rd.,"Phoenix, AZ 85031",623-691-0919,1997,380,K-8,Open,"A learning environment, rich in arts, sciences and language where students develop strong academic skills and character, strive for excellence and become lifelong learners.",-112.1741821,33.4950245
ACE Charter High School-North Campus,1929 N. Stone Ave.,"Tucson, AZ 85705",520-628-8316,1996,170,12-Sep,Open,"Provides a quality education especially to students unable to function successfully in the public school system, using state-of-the-art technology in a business environment. Self-directed curriculum uses computer-assisted instruction.",-110.972248,32.24574
ACE Charter High School-South Campus (Youthworks High School),1915 E. 36th Street,"Tucson, AZ 85713",520-628-8316,2009,56,12-Sep,Open,,-110.942218,32.193165
Acorn Montessori Charter School,8556 E. Loos Dr.,"Prescott Valley, AZ 86314",928-772-5778,2001,150,K-6,Open,"Children learn the virtues, self-discipline and experience they need to succeed.",-112.315939,34.604503
Acorn Montessori Charter School - West,7555 E. Long Look Dr.,"Prescott Valley, AZ 86314",928-775-0238,2006,180,PreK-2,Open,"Children learn the virtues, self-discipline and experience they need to succeed.",-112.332497,34.599914
Adalberto M. Guerrero School,2797 N. Introspect Dr.,"Tucson, AZ 85745",520-807-2836,1999,150,8-Jun,Open,"Committed to the personal, intellectual and social growth of all students through a comprehensive multicultural education program.",-111.024178,32.2561589
Adams Traditional Academy,16635 N. 51st Avenue,"Glendale, AZ 85306",602-938-5517,2009,218,K-8,Open,,-112.166524,33.635926
Adventure Academy,5757 East Pima Street,"Tucson, AZ 85712",520-296-0656,2005,55,K-4,Open,,-110.869091,32.243726
Ahwatukee Foothills Prep,10210 S. 50th Place,"Phoenix, AZ 85044-5209",480-763-5101,2004,300,K-5,Open,"Characterized by a sound college preparatory curriculum, a faculty of educated, respected, encouraging, and caring teachers, a safe, supportive environment for learning and a communicative, accountable administration.",-111.975415,33.354164
Ahwatukee Foothills Prep Early College High School,10210 S. 50th Pl.,"Phoenix, AZ 85044",480-763-5101,2010,100,9,Open,Focus on STEM curriculum.,-111.975415,33.354164
Aim High Institute Charter School,1375 N. McClintock Dr.,"Chandler, AZ 85226",480-763-8272,2009,117,K-12,Open,"International curriculum focusing on teaching methods from around the world, such as Singapore Science and the Chinese- Mandarin and Arabic languages.",-111.909918,33.327005
Akimel OOtham Pee Posh,Hwy 87 Blackwater School Rd.,"Coolidge, AZ 85228",520-215-5859,1999,250,K-5,Open,Recognizes and develops unique languages and cultures through academic and interpersonal experiences. Native American population.,-111.53,32.96
Alhambra College Preparatory High School,3802 West Maryland,"Phoenix, AZ 85019",602-246-0578,2009,130,10-Sep,Open,"Provides students an opportunity to explore and pursue civic, community, cultural, and career aspirations.",-112.1406826,33.5312836
All Aboard Charter School,5827 N. 35th Ave.,"Phoenix, AZ 85017",602-433-0500,2001,92,K-4,Open,"Prepares children to be productive in their environment, have a high quality of education, involve the parents and the community and have a strong emphasis on literacy and reading.",-112.133709,33.523203
AllSport Academy,8570 E. 22nd St.,"Tucson, AZ 85710",520-731-2150,2000,150,9-May,Open,Founded on the principle that sports and education can be successfully combined and integrated into the lives of highly focused young athletes.,-110.809317,32.205929
Alta Vista Charter High School,5040 S. Campbell Ave.,"Tucson, AZ 85706",520-294-4922,2003,456,12-Sep,Open,"Helps all students develop basic skills, understanding and attitudes necessary to become productive citizens.",-110.944564,32.160976
Ambassador Academy,10841 S. 48th Street,"Phoenix, AZ 85044",480-961-2214,2007,23,K-1,Open,Prepare future leaders through the development of academic excellence and strong character and leadership skills.,-111.979745,33.3474239
American Heritage Academy - Camp Verde Campus,675 W. Sunland Dr.,"Camp Verde, AZ 86322",928-567-0462,2006,38,K-3,Open,"Promotes Americas founding principles through a liberal arts education fostering personal greatness, community service and strong academic and leadership skills while reaffirming hope in a caring environment. 2007 will add 4-5.",-111.856083,34.559544
American Heritage Academy - Cottonwood Campus,2030 E. Cherry St.,"Cottonwood, AZ 86326",928-634-2144,1995,300,K-12,Open,"Promotes Americas founding principles through a liberal arts education fostering personal greatness, community service and strong academic and leadership skills while reaffirming hope in a caring environment.",-112.0049814,34.7323507
American Leadership Academy-Gilbert,17019 S. Greenfield Road,"Gilbert, AZ 85295",480-988-3204,1997,280,K-8,Open,"Provides a strong academic foundation focusing on achievement and subject mastery, a recognition and appreciation for Americas freedoms, history and world contributions.",-111.7371,33.293307
American Leadership Academy-Queen Creek,22719 S. Ellsworth Rd. Suite 103,"Queen Creek, AZ 85142",480-987-4500,2010,500,12-Sep,Open,,-111.6348124,33.2397428
AmeriSchools Academy - Camelback,1333 W. Camelback Rd.,"Phoenix, AZ 85013",602-532-0100,1998,189,K-8,Open,Individualized instruction of a basic core curriculum supported by enrichment and acceleration. Teaches cognitive and valuing skills through an integrative curriculum utilizing non-graded and multi-age alternatives for instruction.,-112.090253,33.508952
AmeriSchools Academy - Country Club,1150 N. Country Club Road,"Tucson, AZ 85716",520-620-1100,1997,210,K-8,Open,"Individualized instruction of a basic core curriculum supported by enrichment and acceleration. Teaches cognitive and valuing skills through an integrative curriculum utilizing non-graded, multi-age instruction.",-110.9267638,32.2374015
AmeriSchools Academy - Yuma,2098 S. Third Ave.,"Yuma, AZ 85364-6425",928-329-1100,1998,210,K-8,Open,"Parents, community members and educators create innovative and flexible ways of educating children. Provides an academically rigorous, college preparatory program to help students develop academic, social and creative potential.",-114.6234275,32.6900131
AmeriSchools College Preparatory Academy,7444 E. Broadway Blvd.,"Tucson, AZ 85710",520-722-1200,1997,150,K-12,Open,"Enables parents, community members and educators to create innovative and flexible ways of educating children. Provides an academically rigorous, college preparatory program.",-110.8336419,32.22078
Apache Trail High School,945 W. Apache Trail,"Apache Junction, AZ 85220",480-288-0337,2000,165,12-Sep,Open,"Safe and fair environment in which the school staff, with the support of parents, guides students toward respecting others and understanding the varied cultures of our society, while striving for excellence.",-111.556207,33.414665
Apex Academy Middle School,945 W. Apache Trail,"Apache Junction, AZ 85220",480-288-0337,2003,100,8-Jun,Open,An education that incorporates the principles of interdisciplinary learning in safe environments where excellence is expected and cultivated.,-111.556207,33.414665
Arizona Academy of Leadership - North,40 W. Ft. Lowell,"Tucson, AZ 85706",520-370-9643,2008,86,K-4,Open,Focuses on leadership and community service.,-110.9725513,32.2647636
Arizona Academy of Leadership - South,5660 S. 12th Ave.,"Tucson, AZ 85706",520-807-9668,2007,86,K-5,Open,All day kindergarten. K-8 Spanish program. Focuses on leadership and community service.,-110.978765,32.1495
Arizona Academy of Leadership- Central Campus,225 N. Country Club,"Tucson, AZ 85716",520-881-1487,2007,200,PreK-8,Open,All day kindergarten. K-8 Spanish program.Focuses on leadership and community service.,-110.927251,32.223858
Arizona Academy of Science,1875 North Central Ave.,"Phoenix, AZ 85004",602-253-1199,1999,112,K-8,Open,Instruction for students who wish to enter into serious and rigorous study of science and technology. Students will learn the inter-relatedness of science and technology with society.,-112.0736819,33.4691649
Arizona Agribusiness & Equine Center -Estrella Mountain Campus,"3400 North Dysart Rd, AAEC Administration Building C","Avondale, AZ 85392",623-535-0754,2010,100,12-Sep,Open,,-112.3278161,33.4760461
Arizona Agribusiness and Equine - Paradise Valley Campus,17811 N. 32nd St.,"Phoenix, AZ 85032",602-569-1101,2000,274,12-Sep,Open,Seeks to provide the knowledge and skills needed to get a head start in Agribusiness.,-112.011795,33.648475
Arizona Agribusiness and Equine Center - Mesa Campus,2165 N. Power Rd.,"Mesa, AZ 85215",480-833-8899,1997,382,12-Sep,Open,Seeks to provide the knowledge and skills needed to get a head start in Agribusiness.,-111.682748,33.455279
Arizona Agribusiness and Equine Center - Red Mountain Campus,2165 N. Power Rd.,"Mesa, AZ 85215",602-297-8500,2003,130,12-Sep,Open,"Computer-aided equine science, animal science, veterinarian technology, biotechnology and more.",-111.682748,33.455279
Arizona Agribusiness and Equine Center - South Mountain Campus,2002 East Baseline,"Phoenix, AZ 85042",602-323-9890,,,12-Sep,Open,,-112.038548,33.378094
Arizona Call-A-Teen Center for Excellence,641 N. 6th Ave,"Phoenix, AZ 85003",602-252-6721,1997,150,12-Sep,Open,Targets at-risk students and dropouts. Measures success by assessing skills in use and teaches skills in context that have value beyond classroom walls. Develops academic skills that are transferable.,-112.081079,33.456273
Arizona Charter Academy,16025 N. Dysart Rd.,"Surprise, AZ 85374",623-875-5975,1996,330,K-12,Open,"Prepares students to become good citizens, hard workers and lifelong learners. Prepares students to reach their goals and dreams. Student will experience individualized curriculum.",-112.3418499,33.6292135
Arizona Compass Prep School,"2020 North Arizona Ave, G-62","Chandler, AZ 85225",480-779-2000,2009,25,12-Jul,Open,Visual and performing arts focus.,-111.8418355,33.3372078
Arizona Compass Preparatory School,550 W. Warner Rd.,"Chandler, AZ 85225",480-287-5588,2008,24,10-Jul,Open,"School integrates technology, athletics and the arts to prepare our students for the college and beyond.",-111.849925,33.33558
Arizona Connections Academy,"1017 S. Gilbert Rd., Ste. 210","Mesa, AZ 85204",480-782-5842,2003,247,K-10,Open,Individual learning program with an online focus.,-111.788204,33.3955198
Arizona Conservatory for Arts and Academics,2820 W. Kelton Ln.,"Phoenix, AZ 85053",602-266-4278,2003,370,12-Jun,Open,"Focuses on the arts and provides unique training in areas such as visual arts, French, Spanish, American Sign Language, guitar, piano, science, math and dance. School for deaf located on campus.",-112.119503,33.637238
Arizona School for the Arts,"1313 N. 2nd St., Suite 6","Phoenix, AZ 85004",602-257-1444,1995,370,12-Jun,Open,Provides serious and rigorous study of the fine and performing arts at the conservatory level.,-112.070662,33.46315
Arizona Upgrade Academy,327 S. 15th St.,"Cottonwood, AZ 86326",928-634-3722,2004,34,11-May,Open,Provides a learning environment rich in technology where students achieve academic and social excellence while solving real-life problems in a cooperative manner.,-112.01068,34.733225
Arizona Virtual Academy,"4595 S. Palo Verde Rd., Suite 517","Tucson, AZ 85714",520-623-1483,2001,4600,K-12,Open,"Serves residents of rural Arizona, including dropouts and at-risk youth. PPEP has served low-income families, migrant workers, American Indians and Mexican-Americans for 27 years. This site is a distance learning school.",-110.9175921,32.1688094
Arts Academy at Estrella Mountain,2504 S. 91st Ave.,"Tolleson, AZ 85353",623-474-2120,2005,440,K-8,Open,"Professional learning community that merges fine arts, academics and life skills.",-112.257069,33.423948
Arts Academy at Scottsdale,7214 E. Jenan Dr.,"Scottsdale, AZ 85260",480-951-3190,2009,145,K-4,Open,,-111.925624,33.5935569
Arts Academy at South Mountain,4039 E. Raymond St.,"Phoenix, AZ 85040",602-437-3927,1999,300,K-8,Open,"Teaches the core content areas of education in a nurturing, family-oriented, safe, and drug free environment.",-111.993899,33.412356
Ascending Roots Scholastic and Athletic Premise,7310 N. 27th Ave.,"Phoenix, AZ 85051",602-424-1830,2002,170,K-8,Open,"Discipline, high standards, hard work, team work and character development.",-112.118088,33.544489
Avalon Elementary School at San Marcos,1045 S. San Marcos,"Apache Junction, AZ 85220",480-671-4584,2002,350,K-8,Open,"Features a family-type environment where each child is respected, where education is exciting and where school and parents work together.",-111.5547592,33.4245572
Aztec High School,2330 W. 28th St.,"Yuma, AZ 85364",928-314-1918,1995,91,12-Sep,Open,"Individualized educational and vocational experience for at-risk students, including adjudicated youth and dropouts. Year-round schedule. Incorporated with the Juvenile Court System.",-114.6479482,32.6767873
Aztlan Academy,3376 S. 6th Ave.,"Tucson, AZ 85713",520-573-1500,2000,101,12-Sep,Open,"Focuses on student achievement within a rich learning environment that supports the history, culture and interests of Chicano students.",-110.9684178,32.1855017
Back to Basics Charter School,1529 W. McDowell Rd.,"Phoenix, AZ 85007",623-444-7963,2000,150,K-8,Open,"Offers individualized daily lesson plans. The non-graded, 100% Skill Mastery approach emphasizes the students ability to excel. Focus on reading success.",-112.093071,33.465734
BASIS Oro Valley,11155 N. Oracle Rd.,"Oro Valley, AZ 85737",520-740-6480,2010,400,10-May,Open,,-110.9438464,32.4082354
BASIS Scottsdale,11440 N 136th St,"Scottsdale, AZ 85259-3812",480-451-7500,1999,595,12-May,Open,Basis Scottsdale provides a rigorous liberal arts college preparatory education to middle and high school students. Goal is to provide an academic foundation for lifelong learning.,-111.7877175,33.5903423
BASIS Tucson Middle School,3825 E. Second St.,"Tucson, AZ 85716",520-326-6367,1997,558,12-May,Open,Supportive environment provided by the faculty and administration balance our rigorous and demanding academic program.  Our goal is to have students learn to take responsibility for their own education and to recognize and enjoy the power of knowledge.,-110.910936,32.234824
BASIS Tucson Upper School,3434 E. Broadway Blvd.,"Tucson, AZ 85716",520-326-3444,1997,180,12-Aug,Open,Supportive environment provided by the faculty and administration balance our rigorous and demanding academic program.  Our goal is to have students learn to take responsibility for their own education and to recognize and enjoy the power of knowledge.,-110.919489,32.221134
Beginning Academy,3067 N. Campbell Ave.,"Tucson, AZ 85719",520-325-2310,2005,120,K-5,Open,"Accelerated, back-to-basics curriculum.",-110.9438298,32.2627383
Belle Affeld Beloved Humanities Academy,4225 N. Montezuma Ave.,"Lake Montezuma, AZ 86342",928-567-4475,2003,150,12-Apr,Open,"Strives to reach each person, seeking to magnify that potential. Academic success forms the basis in all school activities.",-111.7780775,34.6305216
Benchmark Elementary School,4120 E. Acoma Dr.,"Phoenix, AZ 85032",602-765-3582,1999,420,K-6,Open,Offers a solid foundation of knowledge through a first class education individually structured to optimize each childs potential.,-111.9933616,33.6191164
Benjamin Franklin Charter School - Gilbert,13732 E. Warner Road,"Gilbert, AZ 85296",480-632-0722,1996,1300,K-6,Open,"Emphasizes phonics-based instruction, strict discipline, high academic standards, mandatory homework and a dress code.",-111.7855248,33.3356
Benjamin Franklin Charter School - Mesa,2345 N. Horne St.,"Mesa, AZ 85203",480-649-0712,1995,250,K-6,Open,"Phonics-based instruction, strict discipline, high academic standards, mandatory homework and a dress code.",-111.813068,33.45822
Benjamin Franklin Charter School - Power,22951 S. Power Rd.,"Queen Creek, AZ 85242",480-677-8400,2006,665,K-8,Open,"Phonics-based instruction, strict discipline, high academic standards, mandatory homework and a dress code.",-111.6857735,33.2403716
Benjamin Franklin Charter School - Queen Creek,21151 S. Crismon Road,"Queen Creek, AZ 85242",480-987-0722,1998,540,K-8,Open,"Phonics-based instruction, strict discipline, high academic standards, mandatory homework and a dress code.",-111.615983,33.259822
Bennett Academy,2930 West Bethany Home Road,"Phoenix, AZ 85017",602-943-1317,1995,140,K-8,Open,"College prep training in academics, behavior and character. Offers instruction in the basic disciplines, with emphasis on language skills, communication and problem solving.",-112.1219158,33.524029
Berean Academy,1169 N. Colombo Avenue,"Sierra Vista, AZ 85635",520-459-4113,2003,300,K-10,Open,"Core curriculum focus in arts and technology. Committed to the physical, mental and emotional well-being of each student.",-110.24731,31.5631607
Blueprint High School,"670 North Arizona Avenue, Ste. 1","Chandler, AZ 85225",480-892-0235,2009,,12-Sep,Open,,-111.842898,33.314533
Bradley Academy of Excellence,200 N. Dysart Rd.,"Avondale, AZ 85323",623-932-9902,2003,140,K-8,Open,"Dedicated to providing an extensive, enriching, competency-based, relevant educational program that allows each student to experience academic success.",-112.341387,33.437211
Bright Beginnings School,400 N. Anderson Blvd.,"Chandler, AZ 85224-8273",480-821-1404,1996,440,K-6,Open,"A warm, accepting and challenging learning environment that improves pupil achievement. Offers core subjects.",-111.874777,33.308599
Bright Ideas Charter School - Dorsey Lane,2720 S. Dorsey Ln.,"Tempe, AZ 85282",480-777-1658,1999,100,K-8,Open,"Guides students in development of their character and academic potential through academically rigorous, content-rich educational programs.",-111.916305,33.400277
Burke Basic School,131 E. Southern Ave.,"Mesa, AZ 85210",480-964-4602,1995,650,K-6,Open,Emphasis on teaching reading while utilizing intensive phonics beginning in kindergarten. Focuses on core academic skills.,-111.8288759,33.3932206
Calli Ollin Academy Charter School,200 N. Stone Ave. 3rd Floor,"Tucson, AZ 85701-1208",520-882-3029,1997,58,12-Sep,Open,"Provides a positive learning environment, develops responsible citizens and inspires lifelong learning. Offers computerized and instructor-taught lessons, tutoring and survival skill courses.",-110.971313,32.224527
Cambridge Academy East,9412 E. Brown Road,"Mesa, AZ 85207",480-641-2828,1998,200,K-6,Open,"Provides a quality, standards-based education while creating a parent-community partnership.",-111.627706,33.437473
Cambridge Academy East,9412 E. Brown Road,"Mesa, AZ 85207",480-641-2828,2009,286,K-6,Open,"Provides a quality, standards-based education while creating a parent-community partnership.",-111.627706,33.437473
Camelback Academy,7634 W. Camelback Rd.,"Glendale, AZ 85303",623-247-2204,2002,375,K-6,Open,"Guides students in the development of their character and academic potential through a small, family-oriented environment with an emphasis on high moral values and strong, back-to-basics academic standards.",-112.2241,33.50947
Candeo Schools - Peoria,9965 W Calle Lejos,"Peoria, AZ 85383",623-979-6500,2008,242,K-6,Open,Classical education model utilizing the Core Knowledge curriculum.,-112.27346,33.702998
Canyon Pointe Academy,4941 West Union Hills Drive,"Glendale, AZ 85308",602-896-1166,2002,310,K-6,Open,,-112.166971,33.653594
Canyon Rose Academy,3686 W Orange Grove Rd,"Tucson, AZ 85711",520-514-5112,2003,453,12-Sep,Open,"Develops the highest levels of student achievement within an integrated, gifted/honors program of academic study primarily focusing upon technology as co-inquiry cultivating students full academic, social and creative potential.",-111.043565,32.324492
Carden of Tucson,5260 N. Royal Palm Dr.,"Tucson, AZ 85705",520-293-6661,1997,136,K-8,Open,"Offers value-based education and an exceptional academic, physical and social program. Focuses on developing leadership skills.",-111.023611,32.30313
Carden Traditional School at Tucson,5260 N. Royal Palm Dr.,"Tucson, AZ 85705-1148",520-293-6661,2008,131,K-8,Open,,-111.023611,32.30313
Carden Traditional School of Glendale,4744 W. Grovers Ave.,"Glendale, AZ 85308",602-439-5026,2001,128,K-8,Open,"Provides students with a sound foundation of knowledge, skills and the ability to apply them to all learning opportunities.",-112.162121,33.648502
Carden Traditional School of Surprise,15688 W. Acoma Rd.,"Surprise, AZ 85379",623-556-2179,2003,479,K-9,Open,To provide students with a sound foundation of knowledge and skills and the ability to apply them to all learning opportunities. Provides IB curriculum to classes by agny,-112.3984033,33.6168933
Career Success - Glendale Campus,3816 N. 27th Ave.,"Phoenix, AZ 85017",602-285-5525,2003,143,12-Sep,Open,"Activates student empowerment (ownership through decision-making), career focusing and activity-based strategies that address self-worth, goal-setting, job readiness and life-long learning.",-112.1170643,33.4929164
Career Success - Mesa Campus,1455 S. Stapley Dr.,"Mesa, AZ 85204",480-833-7470,,,12-Sep,Open,,-111.804364,33.387709
Career Success - North Phoenix,2325 E. Bell Road,"Phoenix, AZ 85022",602-687-8282,2002,,12-Sep,Open,,-112.0322343,33.6404108
Career Success - Robert L. Duffy High School,2550 E. Jefferson St.,"Pheonix, AZ 85034",602-393-4200,2010,500,12-Sep,Open,,-112.0267348,33.4472289
Career Success - Sage Campus,3120 N. 32nd St.,"Phoenix, AZ 85018",602-955-0355,1999,215,K-8,Open,"Activates student empowerment (ownership through decision-making), career focusing and activity-based strategies that address self-worth, goal-setting, job readiness and life-long learning.",-112.0129536,33.4834818
Career Success - Woods Campus,3160 N. 33rd Ave,"Phoenix, AZ 85017",602-278-5552,,,12-Sep,Open,,-112.1292291,33.4846426
Career Success High School - Cave Creek,6424 E. Cave Creek Road,"Cave Creek, AZ 85331",480-575-0075,2002,85,12-Sep,Open,"Activates student empowerment (ownership through decision-making), career focusing and activity-based strategies that address self-worth, goal-setting, job readiness and life-long learning.",-111.942289,33.832806
Carpe Diem E-Learning Community,3777 W. 22nd Ln.,"Yuma, AZ 85364",928-317-3113,2001,200,12-Jun,Open,Academic preparation for a post-secondary education.,-114.6688609,32.6861287
Casa Verde High School,1362 N. Casa Grande Ave.,"Casa Grande, AZ 85222",520-876-0661,2001,300,12-Sep,Open,Dedicated to creating a challenging and nurturing environment in which all students have educational and enrichment opportunities to reach their full potential.,-111.7486732,32.8865105
CASY Co,9350 E. Cactus Rd.,"Scottsdale, AZ 85260",480-661-1930,1996,45,K-1,Open,"Offers an individualized, integrated, hands-on curriculum which stresses high academic achievement and the performing arts. Foundation in basic skills enhanced by a broad-based curriculum.",-111.879676,33.597573
CASY Country Day School - Jenan Campus,7214 E. Jenan Dr.,"Scottsdale, AZ 85260",480-951-3190,1997,125,PreK-5,Open,"Offers an individualized, integrated, hands-on curriculum which stresses high academic achievement and the performing arts. Foundation in basic skills enhanced by a broad-based curriculum.",-111.925624,33.5935569
Caurus Academy,41900 N. 42nd Ave.,"Anthem, AZ 85086",623-551-5083,2004,299,K-8,Open,"Academic, occupational and personal life skills of all students based on community collaboration, parental involvement, staff commitment and role-modeling.",-112.1495698,33.9134434
Center for Academic Success - Douglas 9-12 Campus,510 G Ave.,"Douglas, AZ 85607",520-364-2616,1998,125,12-Sep,Open,"Educates and serves a large, culturally diverse rural community focusing on youth-to-work in a multi-media, high technological environment.",-109.5545927,31.3393449
Center for Academic Success - Douglas K-8 Campus,1415 F Ave.,"Douglas, AZ 85607-2434",520-805-1558,2001,125,K-8,Open,Provides students with the essential knowledge and skills needed for a solid early grade school education.,-109.5522,31.349334
Center for Academic Success - Sierra Vista K-12,900 Carmelita Dr.,"Sierra Vista, AZ 85635",520-458-4200,1996,400,K-12,Open,"Educates and serves a large, culturally diverse rural community, and focuses on basic skills and responsible citizenship.",-110.290178,31.557625
Center for Educational Excellence,1700 E. Elliott,"Tempe, AZ 85284",480-632-1940,1997,360,K-8,Open,Allows each student to achieve maximum growth in educational and life skills by providing a safe and positive environment that allows each student to progress at his/her own pace.,-111.912932,33.3501369
Challenge Charter School,5801 W. Greenbriar Dr.,"Glendale, AZ 85308",602-938-5411,1996,630,K-6,Open,"Official Core Knowledge school. Innovative, hands-on training center focused on academic core subjects. Emphasis on self-reliance and self-motivation.",-112.183925,33.642605
Challenger Basic School,1315 N. Greenfield Rd.,"Gilbert, AZ 85234",480-830-1751,2002,200,K-6,Open,A quality education in every area of the curriculum. Implements the Spalding reading method as well as an enhanced back-to-basics approach to learning.,-111.738488,33.374181
Champion School - North Campus,1313 N. 2nd St,"Phoenix, AZ 85040",602-341-6527,,,8-Mar,Open,,-112.070662,33.46315
Champion School-South Mountain Campus,449 E. Southern Ave,"Phoenix, AZ 85040",602-341-6527,,,K-2,Open,,-112.067745,33.39153
Chandler Academy of Arts and Technology,3400 N. Dobson Rd.,"Chandler, AZ 85224",480-899-6600,1999,35,K-8,Open,Prepares elementary students for successful high school careers.,-111.877663,33.355182
Chandler Preparatory Academy,1951 N. Alma School Rd.,"Chandler, AZ 85224",480-855-5410,2005,404,11-Jun,Open,Traditional liberal arts and sciences. Will expand to grades 6-12.,-111.8590579,33.3338467
Charter for Excellence,19287 N Porter Rd,"Maricopa, AZ 85238",480-262-8522,2007,530,K-6,Open,,-112.013101,33.055225
Chester Newton Charter and Montessori School,30 Hwy. 260 E.,"Camp Verde, AZ 86322",928-567-2363,1997,150,PreK-9,Open,"A quality Montessori educational program as an alternative to public school elementary education. Offers viable intellectual growth for all students, involving parents in special student-related programs.",-111.8538097,34.5540867
Chester Newton Charter and Montessori School - Middle School,30 Hwy. 260 E.,"Camp Verde, AZ 86322",928-567-2363,2000,30,8-Jun,Open,"A quality Montessori educational program as an alternative to public school elementary education. Offers viable intellectual growth for all students, involving parents in special student-related programs.",-111.8538097,34.5540867
Children First Academy - Phoenix,374 N. 6th Ave.,"Phoenix, AZ 85003",602-712-0500,2008,300,K-6,Open,"Educates and provides essential services to children who are homeless, underprivileged or seeking a choice in academic options.",-112.0813754,33.4539922
Children First Academy - Tempe,1938 E. Apache Blvd.,"Tempe, AZ 85281",480-557-6211,2008,175,K-6,Open,"Educates and provides essential services to children who are homeless, underprivileged or seeking a choice in academic options.",-111.902107,33.415776
Children Reaching for the Sky Preparatory,1844 S. Alvernon,"Tucson, AZ 85711",520-790-8400,2001,300,PreK-6,Open,"Challenges students with a multi-cultural traditional education, emphasizing cultural and ethnic differences through historical appreciation and educational advancement.",-110.9095973,32.2006305
Childrens Success Academy,925 E. Bilby Road,"Tucson, AZ 85706",520-799-8403,2000,96,K-5,Open,Provides a positive behavior approach based on the nurtured heart approach and the virtues project.,-110.9575421,32.1415291
City High School,48 E. Pennington St.,"Tucson, AZ 85701",520-623-7223,2004,176,12-Sep,Open,In-depth project-based instruction. Emphasis on connecting students to the curriculum and community. Service learning component.,-110.970598,32.223287
Civano Charter School,10673 E. Mira Ln.,"Tucson, AZ 85747",520-731-3466,1996,66,K-5,Open,"Enhances and supports the individual talents of each child by providing a local option for those parents who would like to send their children to a smaller, non-traditional school.",-110.765105,32.148553
Compass High School,8250 E. 22nd St.,"Tucson, AZ 85710",520-296-4070,2001,300,12-Sep,Open,"Individualized, self-paced program that recognizes the uniqueness of each student in a supportive and accepting environment.",-110.815824,32.205579
Concordia Charter School,142 N. Date St.,"Mesa, AZ 85201",480-461-0555,2007,57,K-3,Open,Based on Core Knowledge Sequence; universal knowledge for schools.,-111.844896,33.417973
Coolidge High Success Center School,450 N. Arizona Blvd.,"Coolidge, AZ 85228",520-723-2112,1998,82,12-Sep,Open,"Core curriculum provided in a safe, nurturing environment which ensures that all students attain their maximum potential academically, socially, culturally, physically, ethically and emotionally.",-111.5240617,32.9813139
Copper Canyon Academy,7785 W. Peoria Ave.,"Peoria, AZ 85345",623-930-1734,1995,281,K-12,Open,"Start-up program that serves dropouts, at-risk youth and their families. Provides and administers holistic education and social services to youth and their families in order to acquire skills necessary to live productive and responsible lives.",-112.227396,33.580504
Cornerstone Charter School,7107 N. Black Canyon Hwy.,"Phoenix, AZ 85021",602-595-2198,2000,200,12-Sep,Open,"Cultivates character, self-direction, academic achievement and critical thinking. Offers an alternative environment to make-up deficient credit history and progress towards graduation in a highly concentrated, efficient manner.",-112.1119834,33.5412673
Country Gardens Charter School,6313 W. Southern Ave.,"Laveen, AZ 85339",602-237-3741,2000,360,K-12,Open,"Nurtures academic, social and emotional success for all students to prepare them for a lifetime of learning as productive, well-rounded citizens.",-112.194657,33.391245
Crestview College Preparatory High School,2616 E. Greenway Road,"Phoenix, AZ 85032-4320",602-765-8470,1996,250,12-Sep,Open,"Offers opportunity to accelerate graduation or catch up through extended school day, free tuition and option for college preparatory program.",-112.025878,33.626823
Crittenton Youth Academy,715 W. Mariposa St.,"Phoenix, AZ 85013",602-288-4523,1997,220,12-Jul,Open,"Focuses on the development of intellectual, democratic, moral and social issues.",-112.083404,33.508045
Crown Charter School,12450 Maryland Ave.,"Litchfield Park, AZ 85340",623-535-9300,2001,225,K-6,Open,School is known for high-energy classroom participation. Academic program emphasizes strong basic skills attainment.,-112.327269,33.53042
D.W. Higgins Institute,1805 E. Elliot Road Ste 112,"Tempe, AZ 85284",480-413-0829,1998,104,K-8,Open,"Instructional program of communication, science, and the arts in a technology-based environment providing all children with the opportunity for high scholastic achievement.",-111.9102573,33.3478272
Davis Education Center,5660 S. 12th Ave.,"Tucson, AZ 85706",520-722-8130,1995,250,K-8,Open,Serves at-risk populations of adolescents within southern Arizona. Incorporates the performing and visual arts into curriculum.,-110.978765,32.1495
Day Star Academy,2030 N. 36th St.,"Phoenix, AZ 85008",602-275-3852,2001,105,K-8,Open,"Flexible, coordinated and individualized program of study designed to promote competence in core academic subjects while being delivered in an online environment.",-112.00423,33.4712787
Deer Valley Academy,18424 N. 51st Ave,"Phoenix, AZ 85027",602-467-6874,2001,175,12-Sep,Open,"School is committed to graduating students by providing the highest quality academic experiences in a safe, technologically-rich environment.",-112.166524,33.635926
Desert Heights Charter School,5821 W. Beverly Ln.,"Glendale, AZ 85306",602-896-2900,2000,350,PreK-8,Open,"Highly qualified teachers in a warm environment for disciplined students, in preparation for a successful high school career.",-112.1857652,33.6335864
Desert Hills High School,1515 S. Val Vista,"Gilbert, AZ 85296",480-813-1151,1995,500,12-Sep,Open,"Offers AP courses and dual enrollment, free tuition, National Honor Society, other academic and service-oriented organizations and flexible scheduling.",-111.7555109,33.3232507
Desert Marigold School,6210 S. 28th St.,"Phoenix, AZ 85042",602-243-6909,2002,200,K-8,Open,"Disciplined creativity, wonder, respect for nature and human existence.",-112.0213727,33.3911682
Desert Mosaic School,5757 W. Ajo Way,"Tucson, AZ 85735",520-578-2022,2000,181,K-12,Open,"Environment where bilingual, bicultural and multidimensional literacy in science, math, technology, history, art and literature is achieved.",-111.342665,32.060897
Desert Pointe Academy,7785 W. Peoria Ave.,"Peoria, AZ 85345",623-930-1734,1996,130,12-Jul,Open,"Program serves dropouts, at-risk youth and their families. Seeks to develop, provide and administer holistic education and social services to youth and their families.",-112.227396,33.580504
Desert Rose Academy Charter School,3686 W Orange Grove Rd,"Tucson, AZ 85741",520-696-0819,2000,340,12-Sep,Open,"A rigorous, individualized, self-paced coursework that is consistently within a state of the art computerized system specifically targeting standards recognized and tested by the State of Arizona.",-111.043565,32.324492
Desert Sky Community School,122 N. Craycroft Rd.,"Tucson, AZ 85716",520-745-3888,2006,50,K-4,Open,"Uses the Waldorf methods to teach the basic subjects with a heavy focus on music, fine arts and foreign language. All students learn Spanish and German.",-110.874304,32.2238479
Desert Springs Academy,3833 E. 2nd St.,"Tucson, AZ 85716",520-321-1709,1999,150,K-8,Open,"Allows students to maximize their growth in academics, citizenship, and personal responsibility in a positive environment that allows each student to progress at his or her own pace.",-110.910471,32.234823
Desert Star Community School,1240 S. Recycler Rd.,"Cornville, AZ 86325",928-282-0171,2006,91,K-6,Open,"Waldorf inspired curriculum, emphasizing multiculturalism.",-111.8868751,34.7159696
Desert Technology High School,3155 Maricopa Ave.,"Lake Havasu City, AZ 86406",928-453-3383,1997,150,12-Sep,Open,"Educational and vocational services for youth to supply them with the tools needed to be responsible, productive citizens and to encourage excellence in all areas of life.",-114.286407,34.457361
Desert View Academy,2363 S. Kennedy Ln.,"Yuma, AZ 85364",928-314-1102,1999,470,K-5,Open,"Provides students a rich, challenging and stimulating environment and curriculum that encourages them to become learners for life. Helps students to see learning as discovery.",-114.6097334,32.6850632
Destiny Community School,875 S. Cooper Road,"Gilbert, AZ 85233",480-325-8950,1999,129,K-8,Open,"Provides a quality, sound education and enrichment service to urban and rural communities.",-111.804737,33.333836
Destiny School,798 E Prickly Pear Dr.,"Globe, AZ 85501-1454",928-425-0925,1995,255,K-8,Open,"Innovative, hands-on training center that focuses on academic core subjects, science, mathematics, computer applications and oral and written communications.",-110.7709764,33.3912603
Digital Technology Academy and Performing Arts School,3295 W. Orange Grove Rd.,"Tucson, AZ 85741",520-219-4383,2010,,4-Jan,Open,Will expand to K-6.,-111.036409,32.32256
DINE Southwest High School,"HC 63, Box 303","Winslow, AZ 86047",928-657-3272,2000,30,12-Sep,Open,Seeks to empower students with a curriculum that is culturally resonant and academically rigorous.,-110.6973571,35.0241873
Discovery Plus Academy,852 W. 250 N.,"Pima, AZ 85543",928-485-2498,1998,97,K-6,Open,Helps students grow both academically and physically while giving all students access to an extraordinary education.,-109.88623,32.951084
Dobson Academy - A Ball Charter School,2207 N. Dobson Road,"Chandler, AZ 85224",480-855-6325,1998,590,K-8,Open,"Motivates students to continue to learn and to develop good character, personal responsibility, tolerance and consideration of others.",-111.875151,33.339531
Dove Academy College Preparatory,4530 N. Central Ave,"Phoenix, AZ 85012",602-234-2130,2002,98,K-8,Open,"Programs of instruction includes a state-of-the-art technology-based program. Curricular goals include cultivating character, self-direction, academic achievement and influencing critical/creative thinking for all students.",-112.0738953,33.5025295
e-cademie,417 N. 16th St.,"Phoenix, AZ 85006",602-416-6400,2004,98,12-Sep,Open,"Enriched learning environment in a family setting. Emphasizes mastering the building blocks of learning, applying higher-level thinking skills, developing problem-solving techniques and communicating effectively.",-112.046544,33.453835
E-cademie - Woods Campus,3160 N. 33rd Ave.,"Phoenix, AZ 85017",602-385-4490,2007,115,12-Sep,Open,"Year-round program for at-risk students, who take 3 classes a day so they are able to work.",-112.1292291,33.4846426
e-Institute at Buckeye,6213 S. Miller Ave #109,"Buckeye, AZ 85326",623-505-7118,2010,,12-Sep,Open,,-112.5908871,33.3910142
e-Institute at Deer Valley,"3515 W. Union Hills Dr., Suite 118","Glendale, AZ 85308",602-843-3891,2001,194,12-Sep,Open,Trains young people to become computer literate and obtain skills for employment in the computer and information technology industries.,-112.135621,33.653685
e-Institute at Grovers,4744 W. Grovers Avenue,"Glendale, AZ 85308",602-439-5026,2009,41,12-Sep,Open,Computer based program,-112.162121,33.648502
e-Institute at Metro Center,"9201 N. 29th Ave., Ste. 26","Phoenix, AZ 85051",602-943-2236,2008,121,12-Oct,Open,,-112.119152,33.569758
e-Institute at Surprise,16578 W. Greenway Rd.,"Surprise, AZ 85388",623-544-9285,2003,107,12-Oct,Open,,-112.416068,33.624661
EAGLE College Preparatory Elementary School,2450 S. Mountain Ave.,"Phoenix, AZ 85041",602-323-5400,2008,164,K-3,Open,Focus on educational greatness and positive character development.,-112.1121757,33.3704834
East Valley Academy,1858 E. Brown Rd,"Mesa, AZ 85203",480-610-1711,,,K-6,Open,,-111.790309,33.437612
East Valley High School,7420 E. Main St.,"Mesa, AZ 85207",480-981-2008,1998,30,12-Sep,Open,"Provide an educational program that challenges each student to attain his or her highest academic and character potential through a coordinated Humanities curriculum, and an integrated performing and fine arts program.",-111.670927,33.4170019
Eastern Sky Community Charter School,3101 W. Peoria Ave Ste. B310,"Phoenix, AZ 85029",602-564-7300,2007,17,K-8,Open,,-112.126522,33.581268
Eastpointe High School,8495 E. Broadway,"Tucson, AZ 85710",520-731-8180,1998,300,12-Sep,Open,"Brings students and the school community together with the larger world through nurturing experiences in academics, technology, service, mentoring and critical inquiry.",-110.810969,32.221566
EcoTech Agricultural Charter School,12221 E. Pecos Road,"Chandler, AZ 85225",480-814-9007,1996,63,K-12,Open,"Provides real world experiences through thematic units grounded in both environmental and traditional agricultural sciences. Multi-age, holistic academic program.",-111.819198,33.290982
EcoTech Agricultural Charter School,12221 E. Pecos Road,"Chandler, AZ 85225",480-814-9007,1996,63,K-12,Open,"Provides real world experiences through thematic units grounded in both environmental and traditional agricultural sciences. Multi-age, holistic academic program.",-111.819198,33.290982
Edge Charter School - Child and Family Resources,2800 E. Broadway,"Tucson, AZ 85716",520-881-1389,1995,22,12-Sep,Open,"Serves disadvantaged youth who have dropped out of school or are at-risk of doing so. Offers a multi-modal, individualized and self-paced high school curriculum.",-110.9309074,32.2215218
Edge High School at Himmel Park,2555 E. First St.,"Tucson, AZ 85716",520-881-1389,1996,251,12-Sep,Open,"Serves disadvantaged youth who have dropped out of school or are at risk of doing so. Offers a multi-modal, individualized, self-paced high school curriculum.",-110.934275,32.235276
Edge High School Northwest Campus,231 W. Giaconda Way Ste. 113,"Tucson, AZ 85704",520-877-9179,,,12-Sep,Open,,-110.9764103,32.3347633
Edge High School Sahuarita Campus,15500 S. Sahuarita Park Rd,"Sahuarita, AZ 85629",520-393-1690,,,12-Sep,Open,,-110.923226,31.96261
EdOptions High School,2150 E. Southern Ave.,"Tempe, AZ 85282",480-621-3365,2009,25,12-Sep,Open,Blends technology and instruction into a teacher managed educational experience that provides each student with an individual learning path.,-111.893489,33.393982
Edu-Prize,580 W. Melody Ave.,"Gilbert, AZ 85233",480-813-9537,1995,1150,K-8,Open,"Uses multiple modality activities, multi-age classes, productions of real world products and concrete applications and developmental appropriateness across all curricular content.",-111.801608,33.376136
Educational Opportunity Center,3810 W. 16th St.,"Yuma, AZ 85364",928-329-0990,1996,100,12-Sep,Open,Designed for the at-risk student who is a potential dropout or who has already dropped out of school. Non-traditional approach emphasizing individual learning styles. School-to-work transition stressed.,-114.6654659,32.6984879
EduPreneurship Student Center (ESC) Phoenix,2632 W. Augusta Ave.,"Phoenix, AZ 85051",602-973-8998,1999,80,K-8,Open,"Multi-age, non-graded intermediate school. Stresses core curriculum skills, product-based activities, civic responsibilities and citizenship skills.",-112.1158244,33.5511556
EduPreneurship Student Center (ESC) Scottsdale,"1201 N. 85th Place, Rm. 110","Scottsdale, AZ 85257",480-990-2475,1995,90,K-8,Open,"Multi-age, non-graded intermediate school. Stresses core curriculum skills, product-based activities, civic responsibilities and citizenship skills.",-111.910516,33.468848
EduPrize Schools,1834 E. Willow Tree Cr.,"Gilbert, AZ 85234",480-813-9537,2007,1000,K-6,Open,"Multiple modality instruction; thematic, science based approach to learning.",-111.749883,33.368959
El Dorado High School,"2200 N. Arizona Ave., Suite 17","Chandler, AZ 85225",480-726-9536,1998,277,12-Sep,Open,Helps all students develop basic skills to become productive citizens. Serves young people for whom traditional schools have not been effective and predictably will not be in the future.,-111.842883,33.34021
Enterprise Academy,415 W. Grant St.,"Phoenix, AZ 85003",602-254-1844,1996,85,K-8,Open,"Works collaboratively with parents, the community, educational organizations and businesses to enable students to acquire, comprehend and apply knowledge in meaningful, productive ways.",-112.0799785,33.4409075
Esperanza Community Collegial Academy,2507 E. Bell Rd,"Phoenix, AZ 85032",602-996-4219,2005,,12-Sep,Open,Focus on English and Spanish literacy,-112.0280668,33.6402749
Esperanza Montessori Academy,4848 S. 2nd St,"Phoenix, AZ 85040",602-243-7788,2004,,K-3,Open,,-112.0711339,33.4025304
Estrella High School,510 N. Central,"Avondale, AZ 85323",623-932-6562,1997,531,12-Sep,Open,Free public charter school that emphasizes core academic subject areas with a focus on business. Student success and achievement are nurtured with a supportive staff that strives to make a difference.,-112.350461,33.4403099
Excalibur Charter High School,10839 E. Apache Trail,"Apache Junction, AZ 85220",480-373-9575,1999,120,12-Sep,Open,Devoted to teaching the mastery of academics while optionally offering training in skills for careers in high demand.,-111.5961031,33.4150794
Excel Education Centers - Chino Valley,1985 N. Road 1 W.,"Chino Valley, AZ 86323-7600",928-636-1444,1997,80,12-Sep,Open,"Students are taught in a self-paced, supportive setting and master educational fundamentals using state-of-the-art, computer-based curriculum.",-112.464581,34.774022
Excel Education Centers - Cottonwood,1229 E. Cherry St.,"Cottonwood, AZ 86326",928-634-2065,1995,100,12-Sep,Open,"Encourages individuality, supports intellectual, physical, social and emotional development and utilizes small classes. Features individual educational success plans and computer assisted instruction.",-112.013694,34.731765
Excel Education Centers - Flagstaff,2229 E. Spruce Ave.,"Flagstaff, AZ 86004",928-214-7442,1998,100,12-Sep,Open,"Encourages individuality, supports intellectual, physical, social and emotional development and utilizes small classes. Features individual educational success plans and computer assisted instruction.",-111.6160943,35.2044453
Excel Education Centers - Fort Mohave,1385 Gemini St.,"Fort Mohave, AZ 86426",928-758-5472,1999,120,12-Sep,Open,"Encourages individuality, supports intellectual, physical, social and emotional development and utilizes small classes. Features individual educational success plans and computer assisted instruction.",-114.60101,35.021581
Excel Education Centers - Prescott Valley,7515 E. Long Look Dr.,"Prescott Valley, AZ 86314",928-775-6681,1997,120,12-Sep,Open,"Prepares students to become productive members of a global society by providing an environment which encourages individuality, recognizes the importance of intellectual, physical, social and emotional development.",-112.3330361,34.6006214
Excel Education Centers - San Carlos,P.O. Box 729,"Peridot, AZ 85542",928-475-2292,1996,120,12-Sep,Open,"Serves disadvantaged youth who have dropped out of school or are at risk of doing so. Offers a multi-modal, individualized, self-paced high school curriculum in an environment promoting respect, responsibility, choice, service, and high expectations.",-110.455,33.3038889
Excel Education Centers - Williams,790 E. Rodeo Road,"Williams, AZ 86046",928-635-3998,1999,70,12-Sep,Open,"Encourages individuality, supports intellectual, physical, social and emotional development and utilizes small classes. Features individual educational success plans and computer assisted instruction. Native American population.",-112.182071,35.257762
Fay Landrum Academy,1902 W. Roeser Rd.,"Phoenix, AZ 85041",602-237-6030,2010,,K-8,Open,,-112.0997523,33.3997206
Flagstaff Arts and Leadership Academy,"3100 N. Fort Valley Road, #41","Flagstaff, AZ 86001",928-779-7223,1996,149,12-Sep,Open,"Offers fine arts education and leadership challenges to help students make a difference in their community. Provides technological learning and partners with arts agencies, businesses and universities.",-111.6635774,35.234056
Flagstaff Junior Academy,306 W. Cedar Ave.,"Flagstaff, AZ 86001",928-774-6007,1996,210,8-Jan,Open,"Provides a small environment that promotes self-esteem and a desire for excellence, curiosity and exploration.",-111.645946,35.2135559
Foothills Academy,7191 E. Ashler Hills Dr.,"Scottsdale, AZ 85262",480-488-5583,1996,250,12-Jun,Open,"Offers an integrated curriculum founded in the environment and the arts to develop technical, cultural and aesthetic literacy. Seeks the objective that all its students be admitted into the college of their choice.",-111.7739678,33.7776274
Fountain Hills Charter School,15055 N. Fountain Hills Blvd.,"Fountain Hills, AZ 85268",480-837-0046,1997,240,K-8,Open,"Offers holistic Montessori approach to enable students to develop strategies for the acquisition of knowledge, skills and values to participate meaningfully in our pluralistic society. Emphasis on parent participation and community partnership.",-111.718224,33.623757
Four-Winds Academy,725 Main St.,"Springerville, AZ 85938",928-333-1060,1995,70,K-8,Open,"Core Knowledge, Saxon math and Shirley English programs as well as a bilingual staff.",-109.2914567,34.1222047
Franklin Phonetic Primary School,6116 E. Hwy. 69,"Prescott Valley, AZ 86314",928-775-6747,1996,420,K-8,Open,"Uses multi-sensory phonics and language arts curriculum to provide logical, effective, phonetic reading instruction. Parent involvement and constant home-school communication stressed.",-112.357938,34.580832
Freedom Academy,15014 N. 56th St.,"Scottsdale, AZ 85254",602-424-0771,2002,220,K-8,Open,"Provides flexible, coordinated, individualized program of study designed to promote competence in core academic subjects while being delivered in an online environment.",-111.961519,33.622844
Freedom Academy,22616 N 39th Terrace,"Phoenix, AZ 85050",602-424-0771,2007,113,K-8,Open,,-111.986382,33.692024
Freedom Academy North,28700 N. Pima Road,"Scottsdale, AZ 85266",602-424-0771,2009,97,K-8,Open,,-111.893407,33.745989
Friendly House Academia del Pueblo Elementary,201 E. Durango St.,"Phoenix, AZ 85004",602-258-4353,2000,226,K-8,Open,Provides community-based bilingual and multicultural educational program to enhance the students knowledge and skills and prepares them to meet the challenges of high school and the changes of our society.,-112.070583,33.429071
Future Investment Middle School,1854 South Alvernon Way,"Tucson, AZ 85711",520-747-3733,2009,,8-Jun,Open,,-110.9095935,32.2004985
Gan Yeladeem: The Looking Glass School,"5555 N. 7th St., Suite 134","Phoenix, AZ 85014",602-493-8301,1996,155,K-8,Open,"Highly individualized, hands-on integrated approach to learning which stresses academic achievement, physical education and fine arts within an unbiased curriculum. Also emphasizes social justice.",-112.064795,33.517587
Gateway Early College High School,108 N. 40th St.,"Phoenix, AZ 85034",602-286-8759,1996,225,12-Sep,Open,"Accelerated, career-focused high school diploma. The goal is to prepare 16 to 21 year-old students to enter the labor force in technical or health career areas or to pursue post-secondary education.",-111.995484,33.4482329
"Gem Charter School, Inc.",1704 N. Center St.,"Mesa, AZ 85201",480-833-2622,1997,75,K-6,Open,Develops well-rounded individuals who are proficient and self-confident life-long learners. Uses the Montessori curriculum.,-111.83171,33.446145
Genesis Academy,640 N. 1st Ave.,"Phoenix, AZ 85003",602-223-4200,1997,115,12-Sep,Open,"Serves high-risk and out-of-school youth with a rigorous academic experience tailored to their individual needs, enabling them to succeed in college or the work force and become lifelong learners and contributing community members.",-112.0752916,33.4561924
Gila Preparatory Academy High School,1976 Thatcher Blvd.,"Safford, AZ 85546",928-348-8688,2002,110,12-Sep,Open,"A nurturing environment for intellectual, creative, social and physical development of all students. This nurturing takes place in a positive, cooperative setting.",-109.7327267,32.8360742
Gila Preparatory Academy Middle School,1976 Thatcher Blvd.,"Safford, AZ 85546",928-348-8688,2002,50,8-Jun,Open,"A nurturing environment for intellectual, creative, social and physical development of all students. This nurturing takes place in a positive, cooperative setting.",-109.7327267,32.8360742
Gilbert Arts Academy,862 E. Elliott Rd.,"Gilbert, AZ 85234",480-325-6100,2008,150,K-6,Open,Will provide college preparatory curriculum and strong arts education.,-111.771234,33.3501151
Glendale Preparatory School,7201 W. Beardsley Rd.,"Glendale, AZ 85308",623-889-0822,2008,174,9-Jun,Open,College preparatory curriculum with a traditional liberal arts education.,-112.2158738,33.6670077
Grand Canyon College Preparatory Charter School,7541 S. Willow Dr.,"Tempe, AZ 85283",480-233-3622,1997,70,12-Jun,Open,College preparatory high school academy seeks to provide a superior and humanistic well-rounded education. Encourages students interests and talents in a variety of disciplines.,-111.91419,33.350713
Great Expectations Academy,1466 W. Camino Antigua,"Sahuarita, AZ 85629",520-399-2121,1999,226,K-8,Open,Accelerated learning program with high expectations for all.,-110.995849,31.929432
Great Hearts Academies - Teleos Prep,1401 E. Jefferson,"Phoenix, AZ 85034",602-275-5455,2009,245,12-Mar,Open,,-112.0518697,33.4469864
Great Hearts Academies-Anthem Prep,"42101 N. 41st Drive, C-101","Phoenix, AZ 85086",602-438-7045,2010,250,12-Mar,Open,,-112.146841,33.866435
Ha:san Middle School,667 N. 7th Ave.,"Tucson, AZ 85705",520-622-0621,2006,60,8-Jun,Open,"Academically rigorous, bicultural and community-based high school. Seeks to help students become strong and responsible contributors to the community. Native American population.",-110.9702478,32.2300133
Ha:sa Preparatory and Leadership Charter School,1333 E. 10th St.,"Tucson, AZ 85719",520-882-8826,1998,150,12-Sep,Open,"Academically rigorous, bicultural and community-based high school. Seeks to help students become strong and responsible contributors to the community. Native American population.",-110.951448,32.222896
Happy Valley School,7140 W. Happy Valley Rd.,"Peoria, AZ 85383",623-376-2900,2000,650,K-6,Open,Features an intensive phonics program and a back-to-basics learning philosophy to better prepare students for junior-high and beyond.,-112.214515,33.711791
Harvest Preparatory Academy,350 E. 18th St.,"Yuma, AZ 85364",928-782-2052,1999,700,K-12,Open,"Guides each student into a high level of academic achievement and success. Develops their personal integrity and commitment to their family, community, school and self.",-114.6176051,32.6949077
Harvest Preparatory Academy San Luis,1044 N. 10th Street,"San Luis, AZ 85349",928-782-2052,2009,894,K-3,Open,,-114.7524627,32.4989808
Haven Montessori Childrens House,2677 E. 7th Ave.,"Flagstaff, AZ 86004",928-522-0985,2008,17,K,Open,Provide a rich and nurturing educational experience Montessori curriculum.,-111.6095328,35.2116574
Haven Montessori Childrens House,621 W. Clay Ave.,"Flagstaff, AZ 86001",928-522-0985,2009,17,PreK-3,Open,,-111.65788,35.195488
Hearn Academy - A Ball Charter School,17606 N. 7th Ave.,"Phoenix, AZ 85023",602-896-9160,1996,600,K-8,Open,"Provides students with the knowledge and skills needed to become successful participants in a democratic society. Motivates them to continue to learn, develop good character and become responsible.",-112.083443,33.645168
Heritage Academy,32 S. Center,"Mesa, AZ 85210",480-969-5641,1995,397,12-Jul,Open,"Instills, through the academic disciplines, a knowledge of and respect for the ideals and values of the great men and women of history, including Americas founders.",-111.8315571,33.4139683
Heritage Elementary - West Campus,13419 W. Ocotillo Road,"Glendale, AZ 85307",623-935-1931,,,PreK-K,Open,early childhood learning with low teacher student ratios,-112.348908,33.5324669
Heritage Elementary - Williams Campus,790 E. Rodeo Drive,"Williams, AZ 86046",928-635-3998,,,K-7,Open,,-112.182071,35.257762
Heritage Elementary School - East (main)Campus,6805 N. 125th Ave,"Glendale, AZ 85307",623-742-3956,2005,865,8-Jan,Open,"Traditional education set in the technology of the day. Focus on phonics reading skills, critical thinking skills and analytical reasoning skills.",-112.3276303,33.5327903
Hermosa Montessori Charter,12051 E. Fort Lowell Rd,"Tucson, AZ 85749",520-749-5518,1997,235,K-8,Open,"Individualized integrated instruction in mixed age groupings with multi-sensory teaching materials. Emphasizes parental involvement and respect for self, others and the environment.",-110.734942,32.266778
Hiaki High School,4747 W. Calle Vicam,"Tucson, AZ 85757",520-883-5051,,,12-Sep,Open,,-111.0671971,32.1163023
Highland Free School,510 S. Highland Ave.,"Tucson, AZ 85719",520-623-0104,2000,72,K-6,Open,"Creates an environment that stimulates students to explore, create and learn at their own pace.",-110.951948,32.215464
Hope High School Online,5651 W. Talavi Blvd. Ste. 170,"Glendale, AZ 85306",800-426-4952,2003,,12-Sep,Open,"Flexible learning to fit the needs of each student, Blueprint Education curriculum",-112.180072,33.635534
Hopi Junior/Senior High School,"Hwy. 264, Behind Police Dept.","Keams Canyon, AZ 86034",928-738-5111,1999,740,12-Jul,Open,"Emphasis on daily attendance, parent and community involvement and creating a positive environment for learning. Seeks to graduate students who will become self-supporting. Native American population.",-110.1951253,35.812506
Horizon Community Learning Center,16233 S. 48th St.,"Phoenix, AZ 85048",480-659-3000,1997,1315,K-12,Open,Provides a learning environment rich in technology where students achieve academic and social excellence while solving real-life problems in a cooperative manner.,-111.978128,33.298497
Humanities and Science Academy - Tempe,1105 E. Broadway Rd.,"Tempe, AZ 85282",480-317-5900,2001,94,12-Sep,Open,"Prepares mature high school students in humanities and sciences for post secondary education, social responsibility, employability and life long learning.",-111.9224665,33.4074321
Humanities and Sciences High School - Phoenix,5201 N. 7th St.,"Phoenix, AZ 85014",602-650-1333,1997,300,12-Sep,Open,"Prepares mature high school students in humanities and sciences for post-secondary education, social responsibility, employability and life-long learning.",-112.064572,33.513035
Humanities and Sciences High School- Tsaile,"c/o Dine College, One Circle Dr., Ned Hatathli Rm 103","Tsaile, AZ 86556",800-762-0010,2001,95,12-Sep,Open,"Prepares high school students in humanities and sciences for post secondary education, social responsibility, employability and life-long learning.",-109.214705,36.303712
Imagine Charter Middle School at Desert West,6738 W. McDowell Rd.,"Phoenix, AZ 85305",623-344-7150,2007,260,8-Jul,Open,"Strong academic focus on core subjects, and art, music and physical education. Strong parent involvement.",-112.205348,33.467098
Imagine Early Learning Center,1764 Paseo San Luis,"Sierra Vista, AZ 85635",520-458-3965,2001,180,PreK,Open,Caring learning community focused on helping each student achieve his or her full potential. Core curriculum.,-110.25501,31.536526
Imagine Elementary at Avondale,950 N. Eliseo C. Felix Jr. Way,"Avondale, AZ 85323",623-344-1730,2008,650,PreK-5,Open,The curriculum is characterized by challenging academic standards that lead to high achievement for all students. Will expand to grade 8.,-112.338771,33.442881
Imagine Middle at Avondale,950 North Eliseo C. Felix Jr. Way,"Avondale, AZ 85323",623-344-1730,2009,486,8-Jun,Open,,-112.338771,33.442881
Imagine Prep at Superstition,1843 West 16th Avenue,"Apache Junction, AZ 85220",480-355-0530,2009,140,12-Jul,Open,"Highly rigorous school designed to prepare its students for college, career and life.",-111.566162,33.399686
Imagine Prep at Surprise,14850 N. 156th Ave.,"Surprise, AZ 85379",623-344-1770,2008,400,12-Jul,Open,"Provide a small school environment, individualized instruction and one-on-one mentoring to help students achieve their highest potential. Will expand to grade 12.",-112.3959973,33.6196338
Imagine Preparatory at Apache Junction,1843 W. 16th Ave.,"Apache Junction, AZ 85220",480-355-0530,2008,85,10-Sep,Open,"The Prep assists each student in transitioning from challenging academics to early college initiative to workplace competence through personalized instruction, project-based learning, and real-world experiences.",-111.566162,33.399686
Imagine School at Avondale,"950 N. Eliseo C. Felix, Jr. Way","Avondale, AZ 85323",623-344-1730,2008,500,K-7,Open,,-112.338771,33.442881
Imagine School at Bell Canyon,18052 N. Black Canyon Hwy.,"Phoenix, AZ 85053",602-547-7920,2002,450,PreK-8,Open,"Offers students, parents and teachers a caring, learning community focused on helping each student achieve his or her full potential.",-112.116114,33.651423
Imagine School at Camelback,5050 N. 19th Ave.,"Phoenix, AZ 85015",602-344-4620,2006,550,PreK-8,Open,"Strong academic focus on core subjects, and art, music and physical education. Strong parent involvement.",-112.10029,33.51066
Imagine School at Coolidge,1290 W. Vah Ki Inn Road,"Coolidge, AZ 85228",520-723-5391,2008,750,K-9,Open,"Commitment to character education, community service projects and peer to peer problem solving through a dynamic conflict mediation program.",-111.538528,32.989415
Imagine School at Cortez Park,3535 W. Dunlap Ave.,"Phoenix, AZ 85051",602-589-9840,2001,800,K-8,Open,"Offers students, parents and teachers a caring, learning community focused on helping each student achieve his or her full potential.",-112.134889,33.566246
Imagine School at Desert West,6738 W. McDowell Rd.,"Phoenix, AZ 85305",623-344-7150,2006,830,K-8,Open,"Strong academic focus on core subjects, and art, music and physical education. Strong parent involvement.",-112.205348,33.467098
Imagine School at East Mesa,9701 E. Southern Ave.,"Mesa, AZ 85209",480-355-6830,2005,850,PreK-8,Open,Standards-based instructional model that includes Positive Character Development. Will expand to grade 9.,-111.6219095,33.393332
Imagine School at Rosefield,12050 N. Bullard Ave.,"Surprise, AZ 85379",623-344-4300,2005,850,K-6,Open,"Strong academic focus on core subjects, and art, music and physical education. Strong parent involvement.",-112.376618,33.593781
Imagine School at Sierra Vista,1000 Wilcox Dr.,"Sierra Vista, AZ 85635",520-224-2500,2001,435,K-8,Open,Caring learning community focused on helping each student achieve his or her full potential. Core curriculum.,-110.287913,31.551575
Imagine School at Tempe,"1538 E. Southern Ave., Suites A-G","Tempe, AZ 85282",480-335-1640,2006,400,PreK-8,Open,"Strong academic focus on core subjects, and art, music and physical education. Strong parent involvement. Will expand to grade 7.",-111.9048311,33.3929948
Imagine School at West Gilbert,2061 S. Gilbert Road,"Gilbert, AZ 85295",480-855-2700,2003,625,PreK-8,Open,"Offers students, parents and teachers a caring and learning community focused on helping each student achieve his or her full potential.",-111.788918,33.312743
Imagine Schools at Rosefield - Middle School,12050 N. Bullard Ave.,"Surprise, AZ 85379",623-344-4300,2006,116,8-Jul,Open,"Strong academic focus on core subjects, and art, music and physical education. Strong parent involvement.",-112.376618,33.593781
Inspire Academy,19602 N. 23rd Ave,"Phoenix, AZ 85027",623-587-9394,2010,,PreK-5,Open,,-112.1086243,33.6640625
Integrity Education Center,7425 E. Culver St.,"Scottsdale, AZ 85257",480-731-4829,1998,55,K-12,Open,"Focus on learning that incorporates strong academic preparation, wellness training for mind and body and character education based on personal integrity.",-111.920651,33.462777
Intelli-School - Ahwatukee,"4629 E. Chandler Blvd., Ste. 140","Phoenix, AZ 85029",602-564-7230,2002,150,12-Sep,Open,Computer driven educational environment and technical training. Serves special needs students and non-traditional learners in a self-paced environment.,-111.9825189,33.3020415
Intelli-School - Chandler,1727 N. Arizona,"Chandler, AZ 85225",480-855-5318,,,12-Sep,Open,,-111.841031,33.333119
Intelli-School - Glendale,13806 N. 51st Ave.,"Glendale, AZ 85306",602-564-7210,2003,150,12-Sep,Open,Computer driven educational environment and technical training. Serves special needs students and non-traditional learners in a self-paced environment.,-112.1684994,33.6115358
Intelli-School - Metro Center,"3101 W. Peoria Ave., Ste. B305","Phoenix, AZ 85029",602-564-7240,2002,155,12-Sep,Open,Computer-driven educational environment and technical training. Serves special needs students and non-traditional learners in a self-paced environment.,-112.126522,33.581268
Intelli-School - Paradise Valley,"1107 E. Bell Road, Ste. #109A","Phoenix, AZ 85022",602-564-7280,1995,700,12-Sep,Open,Computer driven educational environment and technical training. Serves special needs students and non-traditional learners in a self-paced environment.,-112.057685,33.639493
International Commerce Institute,5201 N. 7th St.,"Phoenix, AZ 85014",602-650-1116,1997,132,12-Sep,Open,"Adult high school students academically for occupational education, post-secondary education social responsibility, employability and life-long learning.",-112.064572,33.513035
International Commerce Institute - Tempe,1105 E. Broadway Rd.,"Tempe, AZ 85282",480-317-5900,2001,131,Ages 16-21,Open,"Adult high school students academically for occupational education, post-secondary education social responsibility, employability and life-long learning.",-111.9224665,33.4074321
International Commerce Institute - Tsaile,Dine College Circle Dr.,"Tsaile, AZ 86556",928-724-3269,1999,65,12-Sep,Open,"Adult high school students academically for occupational education, post-secondary education social responsibility, employability and life-long learning.",-109.213846,36.291103
iQ Academy Arizona,"2224 W. Southern Ave., Suite 1","Tempe, AZ 85282",866-602-4729,2007,400,12-Sep,Open,Top quality accredited distance learning program for high school students. Students set their own schedule and work from afar using their laptop computers.,-111.971823,33.393258
Ira H. Hayes Memorial Applied Learning Center,P.O. Box 10899,"Bapchule, AZ 85221",520-315-5100,2000,93,12-Sep,Open,Prepares students to successfully attend institutions of higher education or technical schools and to become effective community members. Native American population.,-111.9403254,33.1589475
James Madison Preparatory School,5815 S. McClintock Dr.,"Tempe, AZ 85283",480-345-2306,2000,168,12-Jul,Open,Traditional education emphasizing Americas history and system of government. Combines classical courses of study with real world knowledge and skills.,-111.9110533,33.3701886
James Sandoval Preparatory High School,3830 N. 67th Ave.,"Phoenix, AZ 85033",623-845-0781,2001,200,12-Sep,Open,"Extensive educational program and relevant learning experience, preparing them academically, socially and emotionally.",-112.204489,33.492151
Jefferson Academy of Advanced Learning,40 S. 11th St.,"Show Low, AZ 85901",928-537-5432,2002,120,K-12,Open,Assists parents in their role as primary educators of their children by providing children with a classical academic education integrated with sound character development through education and mentoring.,-110.030825,34.248934
JWJ Academy - Main,367 N. 21st Ave.,"Phoenix, AZ 85009",602-258-6060,1999,250,K-12,Open,Offers a program of high academic and behavioral standards to low educational achievers and at-risk youth for successful high school careers and entry into other levels of academic environment.,-112.104076,33.453688
JWJ Academy - Primary Campus,367 N. 21st Ave,"Phoenix, AZ 85009",602-305-8440,1999,50,K,Open,"Provides a scholastic climate conducive to high academic achievement, and even higher behavioral standards.",-112.104076,33.453688
Kachina Country Day School - North,10460 N. 56th St.,"Scottsdale, AZ 85253",480-348-1333,2006,153,K-8,Open,Curriculum designed to secure the fundamentals your child needs to unleash potential and realize lifelong success.,-111.961186,33.581668
Kestrel High School,325 N. Washington Ave.,"Prescott, AZ 86301",928-541-1090,1999,95,10-Sep,Open,Core curriculum.,-112.460011,34.546458
Keystone Montessori Charter School,1025 E. Liberty Ln.,"Phoenix, AZ 85048",480-460-7312,1996,315,K-8,Open,Provides an environment scaled to the childs size and designed for structured learning where the children are free to explore and interact. The program is based on the philosophy of Dr. Maria Montessori.,-112.060898,33.295357
Khalsa Montessori Primary School,346 E. Coronado Road,"Phoenix, AZ 85004",602-252-3759,1996,50,PreK-K,Open,"Integrated Montessori education with holistic approach to allow children to reach their highest potential, academically, creatively and physically.",-112.0673812,33.4676461
Khalsa Montessori School,3701 E. River Rd.,"Tucson, AZ 85718",520-529-3611,1999,250,PreK-8,Open,"Integrated Montessori education with holistic approach to allow children to reach their highest potential, academically, creatively and physically.",-110.91422,32.276817
Khalsa Montessori School - Elementary,2536 N. 3rd St.,"Phoenix, AZ 85004",602-252-3759,1995,110,K-6,Open,"Integrated Montessori education with holistic approach to allow children to reach their highest potential, academically, creatively and physically.",-112.0694978,33.4760544
Kin Dah Lichii Olt Charter School,"5 mi. E. of Ganado, 8 mi. E. of Hwy. 264","Ganado, AZ 86505",928-755-3439,1999,215,K-8,Open,"Comprehensive learning and living environment designed to enable each student to acquire the necessary personal, social and educational skills. Native American population.",-109.5420492,35.7114022
Kingman Academy of Learning - High School,3420 Burbank St.,"Kingman, AZ 86409",928-681-2900,2001,4505,12-Sep,Open,"Reading and language arts, math and science. Students learn responsibility for their actions and respect for the rights of all people.",-114.02802,35.223524
Kingman Academy of Learning - Intermediate School,3419 Harrison St.,"Kingman, AZ 86409",928-681-3200,1995,340,5-Mar,Open,"Emphasizes reading and language arts, math and science. Students learn responsibility for their actions and respect for the rights of all people.",-114.025913,35.222444
Kingman Academy of Learning - Middle School,3410 N Burbank St,"Kingman, AZ 86409",928-692-5265,1996,350,8-Jun,Open,"Reading and language arts, math and science. Students learn responsibility for their actions and respect for the rights of all people.",-114.0290849,35.2180384
Kingman Academy of Learning - Primary School,3120 Hualapai Mountain Road,"Kingman, AZ 86401",928-718-2500,1996,350,8-Jun,Open,"Reading and language arts, math and science. Students learn responsibility for their actions and respect for the rights of all people.",-114.006231,35.18513
La Paloma Academy - Central,2050 N. Wilmot Rd.,"Tucson, AZ 85712",520-721-4205,2001,617,K-8,Open,Committed to providing the highest quality education where children can achieve their full academic potential. Features individualized instruction in core curriculum and a low teacher-student ratio.,-110.8579207,32.2466447
La Paloma Academy - Lakeside,8140 E. Golf Links Rd.,"Tucson, AZ 85730",520-733-7373,2003,638,K-8,Open,Committed to providing the highest quality education where children can achieve their full academic potential. Features individualized instruction in core curriculum and a low teacher-student ratio.,-110.818905,32.190956
La Paloma Academy - Midtown,225 N. Country Club Rd.,"Tucson, AZ 85716",520-325-5566,2003,1255,K-8,Open,Committed to providing the highest quality education where children can achieve their full academic potential. Features individualized instruction in core curriculum and a low teacher-student ratio.,-110.927251,32.223858
Lake Havasu Charter School,1055 Empire Dr.,"Lake Havasu City, AZ 86404",928-505-5427,1996,84,K-12,Open,Serves at-risk students using thematic instruction with an emphasis on vocational and technological learning.,-114.355046,34.504951
Leading Edge Academy - East Mesa Campus,10115 E. University Dr.,"Mesa, AZ 85207",480-984-5645,2007,64,K-6,Open,Back-to-basics approach that aims to foster character traits and parental involvement,-111.6136,33.421787
Leading Edge Academy - Gilbert Campus,415 N. Gilbert Rd.,"Gilbert, AZ 85234",480-545-8011,2005,,K-12,Open,,-111.7896379,33.3576293
Leading Edge Academy - Maricopa Campus,18700 N. Porter Rd,"Maricopa, AZ 85138",520-568-7800,2010,130,K-8,Open,,-112.0138403,33.0494691
Leading Edge Academy - Mountain View Queen Creek,4815 W. Hunt Hwy.,"Queen Creek, AZ 85242",489-232-7437,2005,292,K-5,Open,A proven back-to-basics traditional education.,-111.7053572,33.2046348
Leading Edge Academy - Vista Campus,2122 S. Goldfield Rd.,"Apache Junction, AZ 85119",480-984-6311,2009,50,9-Jul,Open,Project- based learning,-111.512458,33.394925
Leading Edge Academy High School -San Tan Campus,7377 W. Hunt Highway,"Queen Creek, AZ 85242",,,,10-Jun,Open,A proven back-to-basics traditional education.,-111.645854,33.202249
Learning Foundation and Performing Arts - Alta Mesa,5761 E. Brown Rd.,"Mesa, AZ 85205",480-807-1100,2006,97,K-12,Open,Offers a balance of core academic subjects and performance arts emphasis. Uses the back to basics curriculum.,-111.706141,33.436826
Learning Foundation and Performing Arts - Scottsdale,7475 E. McDowell Rd.,"Scottsdale, AZ 85257",480-244-3664,2002,112,K-12,Open,"Classical academic education and an immersion in the four arts: theatre, music, visual arts and dance.",-111.918711,33.464744
Learning Foundation and Performing Arts Charter School - Gilbert Road,"1120 S. Gilbert Rd., Building 200, Ste. 112","Gilbert, AZ 85296",480-635-9400,2006,218,K-12,Open,Offers a balance of core academic subjects and performance arts emphasis.,-111.7900972,33.3296727
Learning Foundation and Performing Arts Charter School - Stapley Campus,851 N. Stapley Dr.,"Mesa, AZ 85203",480-834-6202,2003,169,K-12,Open,Offers a balance of core academic subjects and performance arts,-111.8050545,33.4314632
Learning Institute,"5310 N. 12th St., Ste. 100","Phoenix, AZ 85014",602-241-7876,1997,150,12-Jul,Open,"Promotes the academic, occupational and personal life skills of all students based on community collaboration, parental involvement, staff commitment and role modeling.",-112.05701,33.5152519
Legacy School,7464 E. Main St.,"Mesa, AZ 85207",480-981-1500,2002,300,K-8,Open,A Core Knowledge school with a strong performing arts program.,-111.671274,33.415908
Legacy Traditional School - Casa Grande,"1375 E. Florence Blvd., 153","Casa Grande, AZ 85222",520-421-2323,2009,700,K-6,Open,Phonics-based curriculum that focuses on character building and positive discipline. Back to basics curriculum.,-111.7284499,32.8795412
Legacy Traditional School - Maricopa,17760 N. Regent Dr.,"Maricopa, AZ 85138",520-423-9999,2007,445,K-10,Open,Phonics-based curriculum that focuses on character building and positive discipline. Back to basics curriculum.,-111.7249262,33.429364
Legacy Traditional School - Queen Creek,81400 N. Barnes Pkwy.,"Queen Creek, AZ 85240",480-655-5553,2010,700,K-6,Open,Phonics-based curriculum that focuses on character building and positive discipline.,-111.6262798,33.256293
Leona Advanced Virtual Academy,5058 S. Price Rd.,"Tempe, AZ 85282",480-838-1322,,,12-Jul,Open,,-111.8934787,33.3793243
Liberty Arts Academy,3015 S. Power Road,"Mesa, AZ 85212",480-830-3444,2008,250,PreK-6,Open,Will provide college preparatory curriculum and strong arts education.,-111.686688,33.360677
Liberty High School,1438 S. Hagen Road,"Globe, AZ 85501",928-402-8024,1996,64,12-Sep,Open,Stresses school-to-work training to provide students with marketable entry-level skills.,-110.7751914,33.3819714
Liberty Traditional Charter School,4027 N. 45th Ave.,"Phoenix, AZ 85031",602-442-8791,1999,425,8-Jan,Open,"Prepares students in academics and appropriate social skills in a multi-cultural society, thus increasing their self-esteem and mutual respect among their peers.",-112.15592,33.4939332
Liberty Traditional School - Kindergarten Campus,4901 W. Indian School Road,"Phoenix, AZ 85031",602-442-8791,2007,400,K,Open,,-112.16568,33.494425
Life Skills Center of Arizona,"8123 N. 35th Ave., Ste. 2","Phoenix, AZ 85051",602-242-6400,2002,500,12-Sep,Open,Serves at-risk students.,-112.1342308,33.5556463
Lifelong Learning Academy,3295 W. Orange Grove Rd.,"Tucson, AZ 85741",520-219-4383,2002,60,K-6,Open,"Computer-assisted instruction, such as EDUSS, Knowledge Box, Mavis Beacon Typing, My Reading Coach and Success Maker.",-111.036409,32.32256
Little Singer Junior High School,"Route N-71, Navajo Reservation","Winslow, AZ 86047",928-526-6680,1998,15,8-Jul,Open,"In cooperation with the home, nurtures students to develop intellectual, social, physical and emotional skills within a multicultural setting, with a focus on the Navajo culture. Native American population.",-110.7388462,35.2013873
Luz Guerrero Early College,2797 N. Introspect Dr.,"Tucson, AZ 85745",520-807-5892,1997,270,12-Sep,Open,"Prepares students to excel academically at institutions of higher learning. Committed to the achievement of personal, intellectual and social growth of all students.",-111.024178,32.2561589
Masada Charter School,365 W. Cannon Ave.,"Centennial Park, AZ 86021",928-875-2525,2001,330,K-9,Open,"Uses the close involvement of parents and the most current learning technology, which leads to comprehensively literate and self-fulfilled individuals who will benefit the community.",-112.9654557,36.97163
Math and Science Success Academy,434 W. Lerdo Rd.,"Tucson, AZ 85706",520-889-1504,2008,77,K-5,Open,Focuses on mathematics and scientific processes and their application to individual and multiple learning styles.,-110.97607,32.132621
Maya High School,3660 W. Glendale Ave.,"Phoenix, AZ 85051",602-242-3442,1996,600,12-Sep,Open,"Provides a safe and supportive educational environment, preparing students for graduation and beyond through innovative opportunities and a quality academic program focused on AIMS preparation.",-112.137947,33.539808
Mercury Online Academy - Arizona,10210 S. 50th Place,"Phoenix, AZ 85044",888-218-4399,2010,,K-8,Open,,-111.975415,33.354164
Mesa Arts Academy,221 W. 6th Ave.,"Mesa, AZ 85210",480-844-3965,1995,211,K-8,Open,"Provides a continuum of educational skills using art, drama, dance and music. Partners with the Boys & Girls Club of the East Valley.",-111.836703,33.403219
Mesa Prep Academy,1303 S. Lindsay Rd.,"Mesa, AZ 85204",480-222-4233,2007,206,12-Jun,Open,"Offer a rigorous, liberal arts education with a focus on classical literature, strong science and math curriculum, and required fine arts classes. Will expand to grade 12.",-111.7694736,33.3916061
Metropolitan Arts Institute,1700 N. 7th Ave.,"Phoenix, AZ 85007",602-258-9500,1998,280,12-Sep,Open,Provides a rigorous integrated academic program of instruction with individualized performance-based assessment activities. Prepares students for a career in the arts.,-112.083039,33.466949
Mexicayotl Academy,850 N. Morley Ave.,"Nogales, AZ 85621",520-287-6790,1997,145,K-8,Open,Quality and true bilingual/bi-literate educational process to open the doors for continued success in a bilingual and multicultural community and world.,-110.9272925,31.3487811
Midtown High School,7318 W. Lynwood St.,"Phoenix, AZ 85043",623-936-8682,2002,30,12-Sep,Open,Program is based on individualized instruction for English language learners.,-112.1776687,33.4655101
Midtown Primary School,4735 N. 19th Ave.,"Phoenix, AZ 85015",602-265-5133,1997,95,K-4,Open,"Individualized daily lesson plans. The non-graded, 100% Skill Mastery approach emphasizes the students ability to excel. Focus on reading success.",-112.099419,33.507333
Milestones Charter School,4707 E. Robert E. Lee St.,"Phoenix, AZ 85032",602-404-1009,1999,415,PreK-8,Open,"Educational program features small classes taught by involved, caring teachers who are responsive to the growing and changing needs of children.",-111.978928,33.65068
Mingus Mountain Academy,HC 76 (Hwy. 89A North Jct. 151),"Prescott Valley, AZ 86314",602-335-2000,1995,90,12-Jun,Open,"Alternative services to girls with emotional and academic difficulties. Offers individualized, planned, appropriate and efficacious education in a least-restrictive therapeutic setting.",-112.315721,34.6100243
Mingus Springs Charter School,3600 N. Sunset Dr.,"Chino Valley, AZ 86323",928-636-4766,1997,178,K-8,Open,"Curriculum uses thematic units, cooperative learning, and stresses critical thinking. Each child has the same teacher for 2-3 years consecutively.",-112.492517,34.799658
Mission Academy High School,5350 W. Indian School Rd.,"Phoenix, AZ 85031",602-944-2097,2006,455,K-12,Open,"Connects knowledge, thinking, and experiences in an environment where the entire world is a classroom. A school of choice for students who are committed to becoming responsible citizens.",-112.1741821,33.4950245
Mission Charter School - Glendale Campus,1118 West Glendale,"Phoenix, AZ 85020",602-943-4986,1999,90,K-8,Open,"Connects knowledge, thinking, and experiences in an environment where the entire world is a classroom. A school of choice for students who are committed to becoming responsible citizens.",-112.0576469,33.5382792
Mission Montessori Academy,12990 E. Shea Blvd.,"Scottsdale, AZ 85259",480-860-4330,2001,225,K-5,Open,"Promotes a four-way partnership between students, parents, community and school. Students are encouraged to develop traits such as self-motivation, integrity, organization, teamwork and respect for others and for the law.",-111.801071,33.583418
Mohave Accelerated Elementary School,625 Marina Blvd.,"Bullhead City, AZ 86439",928-704-9345,2003,115,K-5,Open,"Combines academic excellence with joy of learning. Mastery of the English language is essential. Respect for the individual and an outstanding faculty foster independent thinking, creativity, responsibility and a strong sense of moral integrity.",-114.625564,35.101025
Mohave Accelerated Elementary School East,2850 Silver Creek Road,"Bullhead City, AZ 86442",928-704-9345,2009,23,K-3,Open,,-114.5517505,35.1093705
Mohave Accelerated Learning Center,625 Marina Blvd.,"Bullhead City, AZ 86442-5414",928-704-9345,2001,290,12-Jun,Open,"Uses community partnership, technology and gifted educators to provide a nurturing learning environment which empowers students to identify their own unique strengths and talents.",-114.625564,35.101025
Montessori Charter School of Flagstaff - Sunnyside,2025 N.E. St.,"Flagstaff, AZ 86004",928-779-1212,2000,150,PreK-K,Open,A well-equipped and educationally superior environment staffed by trained professionals who will encourage each student to explore and discover his or her full potential.,-111.559836,35.2195405
Montessori Charter School of Flagstaff - Switzer Mesa,850 N. Locust Dr.,"Flagstaff, AZ 86001",928-226-1212,1999,260,6-Jan,Open,A well-equipped and educationally superior environment staffed by trained professionals who will encourage each student to explore and discover his or her full potential.,-111.63135,35.200555
Montessori Childrens House,2400 Datsi St,"Count Verde, AZ 86322",928-567-1878,1999,35,PreK-K,Open,Provides a caring and nurturing environment for young children.,-111.7614661,34.6890508
Montessori Day Public Schools Chartered - Chandler,1700 W. Warner Road,"Chandler, AZ 85224",480-730-8886,1996,135,K-6,Open,"Provides self-paced, individualized instruction, peer teaching, cooperative learning, multi-age groupings and an integrated curriculum linking content across curriculum areas.",-111.871414,33.335973
Montessori Day Public Schools Chartered - Mountainside,9215 N. 14th St.,"Phoenix, AZ 85020",602-943-7672,1996,300,K-8,Open,"Self-paced, individualized instruction, peer teaching, cooperative learning, multi-age groupings and an integrated curriculum linking content across curriculum areas.",-112.0523206,33.5699515
Montessori De Santa Cruz - St. Anns Hall,2231 E. Frontage Rd.,"Tubac, AZ 85646",520-398-0536,2000,83,K-6,Open,"Creates an environment wherein the highest potential of each child - spiritual, emotional, physical and intellectual - may be realized.",-111.053532,31.6148643
Montessori Education Centre Charter School - Main,2834 E. Southern Ave.,"Mesa, AZ 85204",480-928-8375,1995,284,PreK-6,Open,Improves students academic performance and attitudes. All basic skills are learned and evaluated so that the students can advance successfully in their academic endeavors.,-111.769692,33.394067
Montessori Education Centre Charter School - North Campus,815 N. Gilbert Rd.,"Mesa, AZ 85203",480-964-1381,2002,210,PreK-9,Open,Improves students academic performance and attitudes. All basic skills are learned and evaluated so that the students can advance successfully in their academic endeavors.,-111.7879864,33.4304096
Montessori House Charter School,2415 N. Terrace Cir.,"Mesa, AZ 85203",480-464-2800,2000,70,PreK-6,Open,"Philosophy of education based on a profound respect for the dignity and uniqueness of each child. In a prepared environment containing a multisensory sequence of manipulative materials, children are enabled to learn through exploration.",-111.801813,33.4593442
Montessori Schoolhouse,1301 E. Ft. Lowell Road,"Tucson, AZ 85719",520 319-8668,1997,85,K-5,Open,"Uses the Montessori method, which stresses independence and a self-paced curriculum, and teaches each child that learning itself is a valuable, attainable goal.",-110.95204,32.265219
Montezuma Middle School,5040 S. Price Road,"Tempe, AZ 85282",480-831-6057,2002,60,8-Jun,Open,Focuses on core academics and a quality educational experience for every student. Founded on respect for the individual and others.,-111.8934647,33.3794059
Mountain English Spanish Academy,2300 E. 6th Ave.,"Flagstaff, AZ 86004",928-773-4088,2002,60,8-Jun,Open,Dual language Spanish-English program. Partners with Northern Arizona University.,-111.615918,35.211635
Mountain Oak Charter School,124 N. Virginia St.,"Prescott, AZ 86301",928-541-7700,1999,210,K-6,Open,Waldorf inspired curriculum. Structured Thematic Teaching.,-112.462219,34.542845
Mountain Rose Academy,3686 W. Orange Grove Road,"Tucson, AZ 85741",520-229-1777,1999,347,12-Sep,Open,"Develops the highest levels of student achievement within an integrated, gifted/honors program of academic study primarily focusing upon technology as co-inquiry cultivating students full academic, social and creative potential.",-111.043565,32.324492
Mountain School,311 W. Cattle Drive Trail,"Flagstaff, AZ 86001",928-779-2392,1999,123,K-5,Open,"Founded and operated by teachers, parents and community members. Offers diverse academic, social, cultural and practical learning experiences to foster and nourish the growth of the whole child.",-111.669153,35.162389
Mountainaire Academy,1460 S. Horne,"St. Johns, AZ 85204",928-337-3593,2003,50,K-12,Open,"Following in the footsteps of the great Chief Sequoia, the school strives to take the best of this societys history and culture, using time-tested teaching techniques combined with modern technology to help todays youth prepare for the future.",-109.7275997,34.366189
Navajo Mission Concordia Charter School,One Mission Lane,"Pock Point, AZ 86545",928-659-4201,2010,56,K-6,Open,,-112.181031,33.5691257
Nazlini Community School,N. Navajo Route #27,"Nazlini, AZ 86540",928-755-6125,1998,150,K-8,Open,"Educates Native American children to become literate, creative, self-confident and responsible citizens of their community, tribe and country.",-109.5381187,35.9920861
New Destiny Leadership Charter School,1923 E. Broadway Rd.,"Phoenix, AZ 85040",602-268-2234,2009,18,K-5,Open,Provides a character education and technology integrated curriculum,-112.040121,33.4067977
New Horizon School for the Performing Arts,446 E. Broadway,"Mesa, AZ 85204",480-655-7444,1996,160,K-6,Open,"Teaches the basics of education, computer skills and the performing arts. Seeks to teach students to be creative and grow in knowledge, confidence, character and self-esteem.",-111.8211743,33.4080062
New Samaritan High School,"1455 S. Stapley Dr., Ste. 20","Mesa, AZ 85204",480-833-7470,2003,70,12-Sep,Open,"Holistic curriculum that incorporates vocational studies in organic farming, economics and technologies.",-111.804364,33.387709
New School for the Arts and Academics Middle School,1216 E. Apache Blvd.,"Tempe, AZ 85281",480-446-7177,2003,81,8-Jul,Open,Includes a program for students who have interest and talent in the arts by providing a superior integrated academic and arts program.,-111.9192052,33.4151262
New Visions Academy - Cottonwood,125 S. 6th St.,"Cottonwood, AZ 86326",928-634-7320,1999,33,12-Sep,Open,"Provides at-risk students with academic, vocational and social skills in a safe, drug-free environment utilizing individualized educational plans to foster competent, responsible and adaptive citizens.",-112.022289,34.737329
